municipality,region,latitude,longitude,russian_lang,elev,dist_road,pop_density,dist_russia,rebel_violence
Katerynivka,Donetsk,47.69011,38.75174,0.2661,0.058309038,0.322097603,0.012898566,0.004655536,1
Vanyushkyne,Donetsk,47.25389,38.26988,0.461244444,0.174927114,0.081231731,0.016223006,0.010769679,0
Svistuny,Donetsk,47.72639,38.40694,0.447177778,0.285714286,0.058713417,0.015849296,0.057760194,0
Samiylove,Donetsk,47.25492,38.24353,0.4644,0.221574344,0.139771923,0.016223006,0.015045225,0
Urzuf,Donetsk,46.91562,37.09961,0.587866667,0.023323615,0.019367839,0.013302488,0.376880794,0
Novo-Voznesenovka,Luhansk,48.0575,39.83111,0.623277778,0.839650146,0.090694245,0.105199448,0.008902018,0
Kurakhivka,Donetsk,48.03069,37.37281,0.412433333,0.580174927,0.066984964,0.25320425,0.590596709,1
Kovske,Donetsk,47.23698,38.23959,0.4644,0.166180758,0.03304094,0.016216559,0.006024123,0
Kotlyarivske,Donetsk,47.47258,38.29102,0.201622222,0.204081633,0.115619514,0.01424001,0.004774892,0
Bilosarayska Kosa,Donetsk,46.90497,37.3466,0.775288889,0,0.29737455,0.013302488,0.247402406,0
Druzhkivka,Donetsk,48.63013,37.55259,0.387588889,0.294460641,0.339423862,0.081525816,0.736022025,1
Krasnopillya,Donetsk,48.98858,37.41287,0.200855556,0.373177843,0.136747928,0.01280105,0.633070836,0
Zvirove,Donetsk,48.25,37.13105,0.231833333,0.457725948,0.179086139,0.125398943,0.770697307,0
Zvanivka,Donetsk,48.81554,38.07615,0.113555556,0.183673469,0.11755167,0.013675658,0.62526617,0
Zuyivka,Donetsk,48.06056,38.25001,0.869144444,0.361516035,0.136899104,0.185578652,0.262763912,0
Zuhres,Donetsk,48.0114,38.26444,0.839688889,0.335276968,0.079876576,0.615880936,0.233859618,1
Zorynsk,Luhansk,48.41194,38.62361,0.458488889,0.772594752,0.176085088,0.046204684,0.33239517,1
Zorynivka,Luhansk,49.47443,40.02526,0.225744444,0.583090379,0.471353763,0.007890079,0.072220359,0
Zorino,Donetsk,47.45,37.51667,0.589611111,0.513119534,0.073495831,0.025781362,0.406786158,0
Zorykivka,Luhansk,49.3963,39.84056,0.095288889,0.332361516,0.073164133,0.007947846,0.096428206,0
Zori,Donetsk,47.36936,38.19755,0.192222222,0.087463557,0.057715784,0.011152706,0.027018605,1
Zoloti Prudy,Donetsk,48.73146,37.0242,0.112744444,0.501457726,0.022894437,0.009697943,0.869528866,1
Zolotoy Kolodez,Donetsk,48.53013,37.23558,0.097777778,0.416909621,0.301829443,0.009454298,0.816568969,0
Zolote,Luhansk,48.69264,38.51459,0.298255556,0.422740525,0.085478807,0.177006345,0.502322312,1
Zolotarivka,Donetsk,48.00497,38.18781,0.685244444,0.620991254,0.118108995,0.234481309,0.244996787,0
Zolota Nyva,Donetsk,47.79425,36.99047,0.262188889,0.355685131,0.036390094,0.010990025,0.746967243,0
Zolotarivka,Luhansk,48.87797,38.27219,0.206922222,0.513119534,0.054462005,0.016443633,0.603463848,0
Znamenivka,Donetsk,48.66569,36.72986,0.148833333,0.29154519,0.042520186,0.009035453,0.882910953,0
Znamenivka,Donetsk,47.43121,37.44371,0.537044444,0.498542274,0.156464249,0.025781362,0.445568221,0
Znamenka,Donetsk,48.85,37.36667,0.2108,0.355685131,0.176773312,0.01280105,0.71295284,0
Znamenka,Luhansk,48.74537,38.90657,0.646888889,0.227405248,0.020981548,0.023995524,0.42926219,0
Znamenka,Luhansk,48.46194,39.26056,0.425166667,0.206997085,0.154233289,0.194714248,0.240427452,0
Zlatoustivka,Donetsk,47.49058,37.32669,0.460266667,0.524781341,0.489922427,0.025781362,0.50638458,0
Cherkasskoye,Luhansk,48.58528,38.9375,0.536933333,0.163265306,0.090003531,0.023995524,0.401752664,1
Zhuravske,Luhansk,49.25767,40.07262,0.220777778,0.551020408,0.66772615,0.007947846,0.031277802,0
Zhuravlevka,Luhansk,48.22417,38.98389,0.637666667,0.935860058,0.304680958,0.010149507,0.201586283,0
Zhuravka,Donetsk,48.22527,37.36917,0.316111111,0.586005831,0.206859457,0.011367429,0.650039266,0
Zhuki,Donetsk,47.63889,38.13833,0.635988889,0.419825073,0.047267666,0.018529607,0.105967867,0
Makedonivka,Donetsk,47.24343,37.55434,0.832422222,0.250728863,0.112566063,0.366129275,0.328482649,1
Zhytlivka,Luhansk,49.09967,38.18907,0.336977778,0.172011662,0.058770106,0.014118785,0.472644846,0
Zhytenko,Donetsk,47.80138,38.6887,0.299322222,0.33819242,0.167042194,0.015849296,0.057915766,0
Zhovte,Luhansk,48.64806,39.11194,0.569833333,0.157434402,0.244862014,0.023995524,0.307932957,1
Zhovte,Donetsk,48.18591,37.14652,0.126511111,0.396501458,0.231416152,0.015486282,0.744754792,1
Zheleznoye,Donetsk,48.31667,37.85,0.556655556,0.344023324,0.135219363,0.215178343,0.493811082,0
Zheleznaya Balka,Donetsk,48.31927,37.96723,0.761622222,0.495626822,0.1701598,0.354250406,0.459591217,0
Zhelanne,Donetsk,48.20849,37.43519,0.440888889,0.577259475,0.018914381,0.012273312,0.614285254,0
Zhelanne Druhe,Donetsk,48.05782,37.41555,0.475988889,0.364431487,0.202464785,0.141124833,0.577183007,0
Zhelanne Pershe,Donetsk,48.07317,37.42363,0.466822222,0.413994169,0.212277447,0.027643038,0.577790287,0
Zhdanivka,Donetsk,48.16155,38.23663,0.731777778,0.618075802,0.006852428,0.276336297,0.319837505,1
Zernove,Donetsk,47.40386,38.09707,0.220511111,0.294460641,0.096309526,0.011152706,0.085790465,0
Zemlyane,Luhansk,48.62776,39.21483,0.553544444,0.489795918,0.224847829,0.023995524,0.249473658,0
Zemlyanky,Donetsk,48.1295,37.91331,0.657977778,0.533527697,0.161097243,0.190688745,0.388352371,1
Zelekivka,Luhansk,49.18493,39.84082,0.110488889,0.180758017,0.047110286,0.007272797,0.065289582,0
Zelenyy Yar,Donetsk,47.20298,37.0521,0.264088889,0.346938776,0.194325989,0.011481604,0.479345451,0
Zelenyy Kut,Donetsk,48.02235,36.8934,0.395388889,0.29154519,0.013863222,0.010990025,0.837006125,1
Zelenyy Hay,Donetsk,47.41836,38.25787,0.195144444,0.139941691,0.26549282,0.011152706,0.025740816,0
Zelenyy,Luhansk,49.38694,39.12778,0.132955556,0.419825073,0.545087179,0.013701479,0.229171529,1
Zelene,Donetsk,48.76205,36.78368,0.147088889,0.370262391,0.339355131,0.009721324,0.83058659,1
Zelene,Donetsk,48.21458,37.19029,0.1359,0.416909621,0.198879806,0.011367429,0.731751796,1
Khutor Zelenyy,Donetsk,48.01667,37.45,0.358655556,0.373177843,0.355851344,0.027643038,0.54867914,1
Zelene Pole,Donetsk,47.82692,36.62249,0.157077778,0.448979592,0.077826522,0.011068547,0.895576431,0
Zelene,Donetsk,47.94552,38.17179,0.698077778,0.533527697,0.045203329,0.032161042,0.219183963,1
Zelenopillya,Luhansk,47.92045,39.48381,0.191644444,0.641399417,0.080998629,0.005102762,0.034982626,0
Zelena Dolyna,Donetsk,49.13204,37.80346,0.1624,0.411078717,0.168761439,0.009892355,0.464797329,0
Zaytseve,Donetsk,48.5257,38.07145,0.214288889,0.381924198,0.292176462,0.013675658,0.543210076,1
Zaytseve,Donetsk,48.39455,38.02965,0.589455556,0.498542274,0.07715034,0.353275963,0.482188261,1
Zayikivka,Luhansk,49.45417,38.76275,0.051555556,0.209912536,0.47129675,0.00709268,0.224261181,0
Zayichenko,Donetsk,47.18083,37.86137,0.360888889,0.139941691,0.040992943,0.016223006,0.211578118,1
Zayachiy,Donetsk,48.33333,37.45,0.259022222,0.533527697,0.008639397,0.011276477,0.652340651,0
Zavodyanka,Luhansk,49.61742,38.81204,0.076333333,0.43148688,0.380660099,0.00709268,0.130192614,0
Koloniya,Donetsk,47.13799,37.5989,0.631555556,0.151603499,0.064547674,0.939437082,0.264273008,1
Zavitne Bazhannya,Donetsk,47.72046,36.81878,0.254733333,0.335276968,0.113938673,0.010990025,0.776251296,0
Zavydo-Kudasheve,Donetsk,48.46388,36.93722,0.050511111,0.335276968,0.154016372,0.009454298,0.927345969,0
Zavydo-Borzenka,Donetsk,48.51234,36.93029,0.058722222,0.524781341,0.217349208,0.009476544,0.945854663,0
Zatyshne,Donetsk,47.52055,37.3251,0.3632,0.513119534,0.35122686,0.025781362,0.520813996,0
Zaporozhye,Luhansk,48.27361,38.71939,0.467055556,0.87755102,0.239182167,0.02471945,0.24119689,0
Zaporizhzhya,Donetsk,48.10348,36.9935,0.204011111,0.475218659,0.572289447,0.011367429,0.801150867,0
Urochishche Zaporozhye,Donetsk,47.81745,37.1602,0.189766667,0.510204082,0.193067923,0.027643038,0.659451296,0
Zaporozhets,Donetsk,47.37342,37.9732,0.403288889,0.311953353,0.28260349,0.011600403,0.145789866,0
Zaparo-Maryivka,Donetsk,48.80075,37.0464,0.113666667,0.483965015,0.097016382,0.009720838,0.834768492,0
Zakhidne,Luhansk,48.4,39.05306,0.354722222,0.32361516,0.309865314,0.030088415,0.302002882,0
Chermalyk,Donetsk,47.31595,37.80865,0.267066667,0.198250729,0.032655262,0.011491616,0.23462383137384701,1
Zamostya,Luhansk,48.57194,39.06361,0.442433333,0.16909621,0.302070238,0.024215382,0.335781203,0
Zamkovka,Luhansk,48.46667,38.68333,0.567288889,0.513119534,0.087639852,0.165365001,0.351386829,0
Zalyman,Luhansk,49.26203,38.16881,0.1101,0.198250729,0.206186214,0.014118785,0.38053419,0
Zalesnoye,Donetsk,48.03104,38.80934,0.832533333,0.801749271,0.066598208,0.201651238,0.096007631,0
Zakotne,Luhansk,49.46831,38.97365,0.044077778,0.180758017,0.494502027,0.010089722,0.188600357,1
Zakotnoye,Donetsk,48.89702,37.9652,0.133533333,0.27696793,0.003816929,0.009901633,0.580137295,1
Zakharivka,Donetsk,47.13976,36.98339,0.276288889,0.212827988,0.01398446,0.012142569,0.491271868,0
Zaaydarivka,Luhansk,49.58507,39.0971,0.076677778,0.212827988,0.031703758,0.010089722,0.133456706,0
Zadorozhnyy,Donetsk,47.7,38.43333,0.4066,0.387755102,0.102536812,0.015849296,0.037877827,0
Zachativka,Donetsk,47.49823,37.15178,0.442622222,0.422740525,0.026577017,0.025045265,0.561009463,0
Yuzhna Lomuvatka,Luhansk,48.43824,38.53022,0.501677778,0.932944606,0.118561008,0.049556809,0.367768615,0
Shcheglovka,Luhansk,48.50452,38.97841,0.465088889,0.227405248,0.04695885,0.027753705,0.359187714,0
Yuryivka,Donetsk,48.38563,36.90043,0.055855556,0.32361516,0.223280641,0.009488243,0.921648486,0
Yuryivka,Donetsk,46.9359,37.19444,0.748355556,0.043731778,0.062897576,0.013302488,0.331760657,0
Yurkovka,Luhansk,49.83333,38.15,0.743711111,0.489795918,0.067115801,0.006915213,0.059971388,0
Yurkivka,Donetsk,48.77629,37.80132,0.210555556,0.61516035,0.023801502,0.012935478,0.66015838,0
Yurkovka,Luhansk,48.38333,38.96667,0.213566667,0.43148688,0.552463852,0.030088415,0.29060031,0
Yunokomunarivsk,Donetsk,48.22225,38.2717,0.642544444,0.559766764,0.03061628,0.245330637,0.346301783,1
Yuvileyne,Luhansk,48.56067,39.1886,0.476466667,0.294460641,0.031204213,0.282366203,0.266226143,0
Yezhachiy,Luhansk,49.305,40.09389,0.235233333,0.329446064,0.411099043,0.007947846,0.045621692,0
Yevsuh,Luhansk,49.20434,39.31198,0.113822222,0.282798834,0.003417474,0.007272797,0.220390733,1
Evhenivka,Donetsk,47.67018,37.08529,0.176711111,0.498542274,0.084865038,0.017129828,0.662342614,0
Yesaulivka,Luhansk,48.05115,39.02372,0.480988889,0.236151603,0.064157192,0.235585881,0.104824611,0
Yepifanivka,Luhansk,49.08163,38.57758,0.087377778,0.201166181,0.028707172,0.014118785,0.459021591,0
Yenakiyeve,Donetsk,48.23331,38.21137,0.644611111,0.606413994,0.078837743,0.33336632188181903,0.362585975,1
Yelizavetovka,Donetsk,48.7,37.2,0.179577778,0.524781341,0.040386028,0.009694312,0.835247121,0
Yelyzavetivka,Donetsk,47.88752,37.2997,0.180577778,0.367346939,0.042505909,0.027643038,0.59547429,0
Yelyzaveto-Mykolayivka,Donetsk,47.82644,38.34206,0.361055556,0.457725948,0.192524681,0.015849296,0.122669452,1
Yelenovskiy,Donetsk,47.74333,38.14222,0.506066667,0.300291545,0.208731104,0.018529366,0.139807884,0
Katerynivka,Donetsk,48.58464,36.88601,0.042444444,0.346938776,0.01614633,0.009694312,0.936481325,0
Yekaterinovka,Luhansk,48.44083,38.43972,0.242833333,0.644314869,0.455026256,0.046204519,0.395433411,0
Katerynivka,Donetsk,48.41852,37.75665,0.122211111,0.434402332,0.338138266,0.007055298,0.571258052,0
Katerynivka,Donetsk,47.87464,37.34466,0.112144444,0.393586006,0.024257097,0.027643038,0.569137407,1
Yekaterino-Khoprov,Donetsk,47.6,38.26667,0.448444444,0.21574344,0.030447875,0.018529607,0.032963719,0
Yehorivka,Luhansk,47.98047,39.19135,0.362811111,0.244897959,0.174776999,0.010149507,0.067454913,0
Ehorivka,Donetsk,47.70757,37.2232,0.262277778,0.516034985,0.020873725,0.025781362,0.606823303,0
Yavlenka,Donetsk,48.66667,37.23333,0.175455556,0.402332362,0.193655908,0.009694312,0.840593092,0
Yasnohirka,Donetsk,48.77421,37.55398,0.4275,0.192419825,0.211597168,0.238004568,0.702474881,0
Yasna Polyana,Donetsk,48.7478,37.52196,0.4259,0.241982507,0.132582245,0.257046466,0.723276086,0
Yasinovka,Luhansk,49.74583,37.98861,0.314744444,0.376093294,0.141572898,0.007864887,0.10308638,1
Yasynivka,Donetsk,48.13207,37.94162,0.616744444,0.559766764,0.330292034,0.153721565,0.379388858,1
Yasynuvata,Donetsk,48.1298,37.8594,0.634355556,0.766763848,0.218266268,0.279163677,0.408751546,1
Yashchykove,Luhansk,48.40287,38.73783,0.597333333,0.472303207,0.047641162,0.046204684,0.308124211,0
Yasenivskyy,Luhansk,48.16387,39.21972,0.568755556,0.78425656,0.036800835,0.142202349,0.167619682,0
Yarova,Donetsk,49.05899,37.64378,0.101177778,0.204081633,0.135434197,0.009950679,0.534876882,0
Yamy,Luhansk,49.76156,38.37218,0.4932,0.440233236,0.269078358,0.006915213,0.128844699,0
Yamshchitskiy,Donetsk,47.80417,38.685,0.299322222,0.265306122,0.140154612,0.015849296,0.060073799,0
Yampolivka,Donetsk,49.07077,37.95826,0.137166667,0.2303207,0.019568408,0.009892355,0.48268523,0
Yampil,Donetsk,48.93555,37.95634,0.133011111,0.148688047,0.017899019,0.009892355,0.558815397,1
Kamyshevataya,Donetsk,46.9667,37.1903,0.748355556,0.055393586,0.130325858,0.013302488,0.341537299,0
Yalta,Donetsk,48.0466,36.75181,0.429644444,0.265306122,0.078328876,0.010346503,0.917050813,1
Yalta,Donetsk,46.96279,37.27365,0.811277778,0.093294461,0.032137097,0.013302488,0.299433865,1
Yalynske,Donetsk,47.64531,36.9312,0.271111111,0.361516035,0.002151632,0.010990025,0.702782871,0
Yakovlivka,Donetsk,48.70853,38.14718,0.199233333,0.489795918,0.031657886,0.013675658,0.615401739,1
Yakovlivka,Donetsk,48.09026,37.82534,0.684422222,0.556851312,0.242581124,0.166195534,0.404906156,1
Yakovenko,Donetsk,47.96333,38.45528,0.333711111,0.510204082,0.305772676,0.007299015,0.183955161,0
Yablunivka,Donetsk,48.42149,37.61143,0.267255556,0.346938776,0.152596193,0.007055298,0.62459767,0
Vysoke,Donetsk,47.94407,38.05804,0.82174444444444406,0.551020408,0.334062042,0.126763239,0.25575835,0
Vysokopillya,Donetsk,48.77083,37.07411,0.109988889,0.504373178,0.131821167,0.009694312,0.842308054,0
Vysochynivka,Luhansk,49.70653,39.55013,0.059833333,0.530612245,0.302790839,0.007158514,0.021660022,0
Vyskryva,Luhansk,48.59164,38.28616,0.290855556,0.390670554,0.491443408,0.01644291,0.515116018,0
Vyskochkin,Luhansk,48.81667,39.05,0.754588889,0.253644315,0.0598617,0.00784662,0.359632649,0
Vyskochka,Luhansk,48.83472,39.0675,0.615911111,0.137026239,0.033821316,0.00784662,0.350165466,0
Vynoslivyy,Donetsk,47.8,38.16667,0.529222222,0.475218659,0.228406084,0.135216016,0.15440414,0
Vuhlyar,Donetsk,48.01599,38.05886,0.763144444,0.603498542,0.205180338,0.48748702,0.287238505,0
Khomenkove Druhe,Luhansk,49.6501,38.8239,0.029588889,0.405247813,0.283491259,0.00709268,0.11115427,0
Vrubivskyy,Luhansk,48.43611,39.10611,0.515488889,0.586005831,0.326463837,0.030088421,0.324409384,1
Vrubivka,Luhansk,48.76426,38.38391,0.202544444,0.565597668,0.441860498,0.016443633,0.569150558,0
Vremivka,Donetsk,47.83557,36.81671,0.352622222,0.311953353,0.02874634,0.010990025,0.826862974,0
Vozrozhdeniye,Donetsk,48.51667,38.21667,0.4202,0.626822157,0.148119668,0.013675658,0.508051046,0
Voznesenka,Donetsk,47.76923,38.04428,0.621222222,0.247813411,0.159322541,0.018529607,0.190604616,1
Vozdvizhenskiy,Donetsk,48.25,37.16667,0.2116,0.524781341,0.048419091,0.011367429,0.753451808,0
Vozdvyzhenka,Donetsk,48.30365,37.51503,0.306666667,0.533527697,0.312916094,0.011255975,0.613954345,0
Voytove,Luhansk,48.84676,39.18666,0.608111111,0.131195335,0.154062484,0.011750816,0.283829056,0
Voykovskyy,Donetsk,47.76355,38.33176,0.512233333,0.419825073,0.129602071,0.015849296,0.08893163,1
Voykove,Donetsk,48.0045,37.99874,0.680877778,0.536443149,0.263363761,0.48748702,0.303473431,1
Voykove,Donetsk,47.96869,38.20851,0.707277778,0.460641399,0.206102322,0.013620966,0.221548737,1
Voykove,Donetsk,47.67536,38.13092,0.601888889,0.364431487,0.227599713,0.018529607,0.120058245,1
Voyevodske,Luhansk,49.94233,38.5395,0.240933333,0.498542274,0.40778518,0.006915213,0.01322392,0
Voyevodivka,Luhansk,48.98031,38.44682,0.413677778,0.157434402,0.254185234,0.246982625,0.544463437,0
Vostochnyy,Luhansk,48.4,38.8,0.591677778,0.448979592,0.009885633,0.046204684,0.299303985,1
Voskresenka,Donetsk,47.95461,36.64403,0.262411111,0.416909621,0.255698039,0.011792638,0.940686036,0
Vorovske,Donetsk,47.59389,38.17144,0.420611111,0.393586006,0.263230958,0.018529607,0.076983036,0
Voroshilovskiy,Donetsk,48.1,37.08333,0.234011111,0.50728863,0.025897445,0.011362739,0.754162674,1
Voroshilovskiy,Donetsk,47.79255,37.81691,0.567044444,0.635568513,0.037050814,0.021285056,0.3062339,1
Voroshilovo,Luhansk,48.15056,39.82806,0.786255556,0.440233236,0.032256967,0.005102762,0.037494992,0
Voroshilovka,Luhansk,48.855,38.23417,0.170055556,0.332361516,0.074445497,0.015922924,0.613038668,0
Voronyy,Donetsk,48.46667,37.48333,0.167711111,0.448979592,0.506248772,0.007055298,0.691884228,0
Voronove,Luhansk,48.89746,38.57279,0.469455556,0.224489796,0.175343366,0.434183865,0.555148871,1
Volodyne,Donetsk,47.69461,36.73788,0.249,0.422740525,0.27005806,0.011025466,0.796663437,0
Volodarske,Donetsk,47.20533,37.32139,0.408711111,0.39941691,0.030465144,0.010494694,0.371250013,1
Volodarsk,Luhansk,48.12483,39.59184,0.671588889,0.693877551,0.019213138,0.436710113,0.126153429,1
Volnukhyne,Luhansk,48.34062,39.28173,0.267077778,0.533527697,0.007071458,0.030088415,0.2634143,1
Luhanske,Donetsk,47.88638,37.68082,0.543777778,0.705539359,0.250052335,0.283004219,0.399111814,0
Vilne,Donetsk,47.52987,37.18513,0.385666667,0.50728863,0.272475136,0.025781362,0.565255221,0
Vodyane,Donetsk,47.82583,37.31184,0.182788889,0.56851312,0.227159256,0.027643038,0.578148893,1
Volnovakha,Donetsk,47.60103,37.49674,0.397222222,0.758017493,0.002784716,0.025781362,0.441188641,1
Volkova,Donetsk,47.38333,38.06667,0.252066667,0.250728863,0.071252229,0.011152706,0.097019956,0
Vovkodayeve,Luhansk,49.06875,39.29861,0.200188889,0.256559767,0.407062709,0.00784662,0.209486437,0
Volya,Donetsk,47.45094,38.07802,0.221344444,0.341107872,0.19677164,0.011152706,0.108654246,1
Vovchyy Yar,Donetsk,49.201,37.66861,0.151333333,0.428571429,0.270926944,0.009892355,0.456526987,0
Volchiy,Luhansk,49.5,39.41667,0.073144444,0.489795918,0.1338173,0.007158514,0.137007433,0
Volchiy,Luhansk,48.42083,38.86639,0.562766667,0.33819242,0.274423418,0.046204684,0.307733355,0
Volcheyarovka Nomer Vtoroy,Luhansk,48.83333,38.36667,0.227555556,0.244897959,0.351947046,0.016443633,0.608427483,0
Vovchoyarivka,Luhansk,48.84557,38.3769,0.225655556,0.239067055,0.315823573,0.095749446,0.612198329,0
Vovchenka,Donetsk,48.00787,37.355,0.413533333,0.346938776,0.182780853,0.25320425,0.593542885,0
Vodyanyy,Donetsk,47.75,37.76667,0.664677778,0.475218659,0.191585035,0.019144639,0.321559725,0
Vodyanskoye,Donetsk,48.41042,37.10338,0.154044444,0.472303207,0.267146384,0.216152735,0.832827536,0
Vodyanoye,Donetsk,48.41667,37.05,0.146266667,0.358600583,0.063788413,0.397962971,0.859620015,0
Vodyanoye,Luhansk,48.39278,39.12361,0.643322222,0.300291545,0.030306607,0.030088415,0.301172857,0
Vodyanoy,Luhansk,48.36583,39.7225,0.606388889,0.524781341,0.17959527,0.125030326,0.07278332,1
Vodino,Donetsk,47.14776,37.78809,0.657355556,0.157434402,0.093051549,0.486804023,0.254068142,0
Vlasivka,Luhansk,48.27332,39.85611,0.948066667,0.142857143,0.370636975,0.161851936,0.025129643,0
Vlasovka,Luhansk,48.20528,39.3475,0.260088889,0.609329446,0.310926924,0.018973835,0.184854451,0
Vladimirovka,Donetsk,48.66602,38.19071,0.184388889,0.294460641,0.024854315,0.013675658,0.581307688,0
Volodymyrivka,Donetsk,48.43859,37.34854,0.219544444,0.314868805,0.053636851,0.009454298,0.734646321,0
Vladimirovka,Luhansk,48.26583,38.86167,0.495777778,1,0.233175473,0.154422742,0.220412445,0
Volodymyrivka,Donetsk,47.73057,37.39001,0.270633333,0.524781341,0.317860878,0.025983785,0.52184475,0
Vitava,Donetsk,47.26833,38.14694,0.220355556,0.099125364,0.106440544,0.015208873,0.049663336,0
Vishnevyy,Luhansk,49.90589,38.69119,0.310711111,0.466472303,0.418517256,0.007065735,0.020812385,0
Vyshneve,Donetsk,47.671,38.2725,0.4459,0.43148688,0.157388423,0.017432652,0.061057249,0
Vyshnovyy,Donetsk,47.34719,37.88204,0.346311111,0.151603499,0.477939907,0.011152706,0.194158757,0
Vyshneve,Donetsk,48.15098,37.248,0.250433333,0.489795918,0.175067934,0.028504771,0.685321696,0
Vyshneve,Luhansk,48.02457,39.21488,0.543477778,0.43148688,0.085522311,0.015177707,0.089518315,0
Vynohradne,Luhansk,49.3957,39.40637,0.066988889,0.355685131,0.40761858,0.007158514,0.191517425,1
Vinogradnoye,Donetsk,47.09376,37.68856,0.728622222,0.008746356,0.219521544,0.326700049,0.230220748,0
Viktorovka,Donetsk,48.53252,36.95732,0.0624,0.533527697,0.418684141,0.009476544,0.939924039,0
Viktorivka,Donetsk,47.63509,37.80831,0.815777778,0.478134111,0.392082951,0.019869656,0.279730497,0
Veselyy Hay,Donetsk,47.89907,37.26092,0.197144444,0.352769679,0.054344965,0.027643038,0.618277645,0
Vesele,Luhansk,49.51364,39.83338,0.061088889,0.367346939,0.607975596,0.007281309,0.030091773,0
Vesely,Donetsk,48.7,37.6,0.390022222,0.326530612,0.031543924,0.238959816,0.732197308,0
Vesele,Luhansk,48.2164,38.57633,0.586255556,0.72303207,0.408987782,0.014190054,0.247491045,0
Vesele,Donetsk,48.1889,37.75886,0.552744444,0.460641399,0.11216022,0.015156474,0.471305288,0
Vesele,Donetsk,47.93379,36.76199,0.317544444,0.29154519,0.050423797,0.010990025,0.88953501,0
Vesele,Donetsk,47.63398,38.07835,0.725611111,0.288629738,0.25238687,0.018529607,0.134135379,0
Vesely,Donetsk,47.47056,38.23278,0.191266667,0.157434402,0.006946841,0.012400822,0.037611729,0
Veselyy,Donetsk,47.36667,37.93333,0.359422222,0.27696793,0.399525705,0.011235021,0.167018221,0
Veseloye,Donetsk,47.09,37.41164,0.669344444,0.21574344,0.070162914,0.013302488,0.288610485,0
Veseloye Pole,Donetsk,48.54407,37.07807,0.245355556,0.588921283,0.264518278,0.009466415,0.889494785,0
Veseloye,Donetsk,48.10361,38.76194,0.712355556,0.43148688,0.139963772,0.260818368,0.142371648,0
Vesele,Donetsk,47.18366,36.97165,0.269733333,0.224489796,0.256610425,0.010924128,0.510107077,0
Veselenke,Luhansk,48.61718,39.44742,0.813688889,0.128279883,0.535260041,0.627056168,0.118169055,0
Vesela Tarasivka,Luhansk,48.51444,39.07889,0.479366667,0.172011662,0.026271387,0.030074542,0.33137201,0
Vesela Hora,Luhansk,48.71261,39.253660000000004,0.588066667,0.157434402,0.130910448,0.023443118,0.233311915,1
Veselaya Gora,Donetsk,48.6214,37.11816,0.107788889,0.422740525,0.497905074,0.009652947,0.898009319,1
Vershynivka,Donetsk,47.48795,38.14523,0.283888889,0.265306122,0.461301751,0.011152706,0.083979184,0
Vershyna,Donetsk,48.51606,38.13437,0.324666667,0.501457726,0.227132083,0.013675658,0.527943147,0
Verovka,Donetsk,48.26611,38.17417,0.6833,0.483965015,0.258686086,0.334118922,0.386065413,0
Verolyubovka,Donetsk,48.60987,37.71864,0.263288889,0.457725948,0.12167137,0.007055298,0.672543334,0
Verkhnya Pokrovka,Luhansk,49.25596,38.72054,0.075188889,0.29154519,4.87042333667793e-4,0.015800481,0.336361867,0
Verkhnya Vilkhova,Luhansk,48.75424,39.55288,0.892966667,0.38483965,0.055957292,0.011763453,0.088270483,0
Verkhnyaya Loshchina,Luhansk,48.71667,39.61667,0.928788889,0.411078717,0.253388213,0.011763453,0.050461664,0
Verkhnya Krynka,Donetsk,48.1623,38.14893,0.651544444,0.379008746,0.215124118,0.348657921,0.335383246,0
Verkhnya Krasnyanka,Luhansk,48.27041,39.50559,0.568755556,0.329446064,0.451410774,0.018725299,0.195276527,0
Verkhnoharasymivka,Luhansk,48.27679,39.9324,0.8588,0.128279883,0.470934191,0.019936528,0.012413105,1
Verkhnya Duvanka,Luhansk,49.69155,38.06209,0.2058,0.303206997,0.726287579,0.010834249,0.131433576,0
Verkhnoderevechka,Luhansk,48.19868,39.72426,0.936444444,0.475218659,0.340643995,0.009710249,0.099456901,0
Verkhniy Naholchyk,Luhansk,48.08593,39.08921,0.668177778,0.518950437,0.178969042,0.278374209,0.126992594,0
Verkhniy Minchenok,Luhansk,48.88184,39.47454,0.736066667,0.21574344,0.246981992,0.011763453,0.127187402,0
Verkhneye,Luhansk,48.88333,38.46667,0.433555556,0.15451895,0.022362652,0.230691227,0.587100737,0
Verkhnotuzlove,Luhansk,47.88503,39.5104,0.232433333,0.603498542,0.010080516,0.005102762,0.021465215,0
Verkhnotoretske,Donetsk,48.22187,37.8798,0.558155556,0.344023324,0.0214814,0.184364909,0.440805066,1
Verkhne-Studenetskiy,Luhansk,49.4,39.3,0.131177778,0.489795918,0.037682379,0.013165734,0.195724512,0
Verkhne-Lozovyy,Luhansk,48.39194,38.42222,0.289144444,0.874635569,0.24295546,0.042994763,0.37895608386477603,0
Verkhnekamenskoye,Luhansk,48.85419,38.26581,0.190266667,0.440233236,0.095356162,0.016429952,0.616328699,0
Verkhneduvannyy,Luhansk,48.31667,39.81667,0.841922222,0.335276968,0.247906026,0.05846973,0.018441336,0
Verkhnobohdanivka,Luhansk,49.04015,39.48234,0.467622222,0.326530612,0.070066502,0.011763453,0.10471877,0
Verhulivka,Luhansk,48.39559,38.49203,0.540622222,0.903790087,0.057796706,0.046204684,0.357845939,0
Verbova Balka,Donetsk,47.83255,38.07887,0.632933333,0.571428571,0.220404654,0.410701774,0.201033732,0
Verbivka,Donetsk,47.97168,38.13608,0.658944444,0.632653061,0.259866798,0.016365513,0.242236548,0
Velshanskiy,Luhansk,49.88333,38.5,0.181044444,0.56851312,0.013524377,0.006915213,0.047672809,0
Velyke Orikhove,Donetsk,48.08737,38.13166,0.762788889,0.623906706,0.03998739,0.352145376,0.300550791,0
Velyke Mishkove,Donetsk,47.87374,38.55998,0.350211111,0.145772595,0.427144103,0.015849296,0.117016069,0
Velykotsk,Luhansk,49.34871,40.02779,0.316411111,0.282798834,0.05598753,0.007947846,0.081066021,0
Veliko Anadoiskaia,Donetsk,47.69894,37.48346,0.291833333,0.679300292,0.032127533,0.025781362,0.466463599,0
Velykyy Sukhodil,Luhansk,48.42389,39.88222,0.763422222,0.142857143,0.494365047,0.008462427,0.009361052,0
Velikiy Log,Luhansk,48.41667,39.55,0.546866667,0.381924198,0.115603702,0.010288488,0.124054344,0
Velykyy Loh,Luhansk,48.26004,39.55407,0.786711111,0.239067055,0.238766214,0.039929332,0.169664139,0
Velyka Shyshivka,Donetsk,47.97731,38.51702,0.427877778,0.586005831,0.045233417,0.007299015,0.179954665,0
Velyka Novosilka,Donetsk,47.84531,36.83534,0.352622222,0.309037901,0.039513656,0.010990025,0.824717555,1
Velyka Chernihivka,Luhansk,48.95905,39.41693,0.582377778,0.2303207,0.361996761,0.011763453,0.142069553,0
Vedenske,Donetsk,47.19836,37.95067,0.221111111,0.15451895,0.028954443,0.016223006,0.161130094,1
Vasyukivka,Donetsk,48.74089,37.99574,0.099922222,0.247813411,0.188549678,0.013675658,0.667290208,0
Vasserreyk,Donetsk,47.45,38.08333,0.221344444,0.288629738,0.191805396,0.011152706,0.105904762,0
Vasylivka,Donetsk,48.72535,38.25991,0.160133333,0.489795918,0.17850482,0.014193917,0.585284958,0
Vasilyevka,Luhansk,48.00889,39.19472,0.426333333,0.367346939,0.216152192,0.010149507,0.082509567,0
Vasilyevka,Donetsk,47.75,37.3,0.211855556,0.483965015,0.214381715,0.025781362,0.573801072,0
Vasylivka,Donetsk,47.67552,38.51404,0.4446,0.233236152,0.011326955,0.015849296,0.021420977,0
Vasylivka,Donetsk,47.60005,38.02099,0.729022222,0.33819242,0.07361904,0.018529607,0.158454554,0
Vasylivka,Donetsk,47.57599,37.6771,0.566011111,0.562682216,0.300579322,0.021100227,0.341506256,0
Varvarovka Vtoraya,Donetsk,48.76667,36.93333,0.069355556,0.513119534,0.082362938,0.009699331,0.839323521,0
Varvarivka,Luhansk,49.07358,38.40913,0.369166667,0.425655977,0.03680675,0.014253753,0.507397538,0
Varvarovka,Donetsk,48.76667,37.33333,0.349433333,0.294460641,0.386594509,0.012177064,0.762870197,0
Varvarivka,Donetsk,48.77329,36.92784,0.065022222,0.489795918,0.134240362,0.009699331,0.835085801,0
Varvarivka,Donetsk,48.64577,37.31039,0.210455556,0.542274052,0.020958595,0.01280105,0.828280692,0
Varvarovka,Luhansk,48.26028,39.63972,0.8122,0.244897959,0.007665699,0.010288488,0.123136709,0
Valuyske,Luhansk,48.6747,39.53681,0.855877778,0.177842566,0.121708059,0.011763453,0.073848104,1
Valiyivka,Luhansk,48.51953,39.49171,0.627,0.148688047,0.104294455,0.010606061,0.108622226,0
Valeryanivka,Donetsk,47.63871,37.38117,0.225811111,0.685131195,0.05755727,0.025781362,0.509741645,0
Vakhrusheve,Luhansk,48.15124,38.78043,0.639977778,0.655976676,0.18603049,0.370515383,0.165198668,0
Utkyne,Luhansk,48.32265,38.79196,0.479955556,0.862973761,0.386371506,0.016679382,0.257075951,0
Ust-Ocheretenskiy,Donetsk,47.88222,38.08861,0.761055556,0.306122449,0.076831075,0.388382219,0.21837907,0
Uspenovskiy,Donetsk,47.11667,37.61667,0.632044444,0.06122449,0.007521434,0.944771236,0.250033331,0
Uspenivka,Donetsk,47.91801,37.22885,0.203588889,0.355685131,0.01894802,0.027643038,0.638916423,1
Uspenka,Luhansk,48.39077,39.16284,0.6012,0.27696793,0.01593499,0.030088415,0.298216941,1
Uspenka,Donetsk,47.72855,38.70695,0.314866667,0.072886297,0.05517835,0.015849296,0.0198201,1
Uritskoye,Donetsk,48.58671,37.07491,0.1797,0.428571429,0.332642279,0.00964171,0.90605886,0
Uritskiy,Donetsk,48.6625,38.19472,0.184388889,0.33819242,0.004753667,0.013675658,0.578342892,0
Uralo-Kavkaz,Luhansk,48.3211,39.80302,0.827844444,0.335276968,0.251430384,0.05846973,0.025029653,1
Umanske,Donetsk,48.15432,37.56924,0.314044444,0.469387755,0.273602305,0.015156474,0.535665767,0
Ulyanivske,Donetsk,47.63703,38.40055,0.439055556,0.218658892,0.055730026,0.015849296,0.015306776,1
Ulyanivka,Donetsk,48.33615,37.42909,0.243933333,0.463556851,0.014283976,0.009204237,0.662222586,0
Ulakly,Donetsk,47.99578,37.08587,0.425366667,0.309037901,0.066041161,0.014368392,0.729840608,0
Ukrayinsk,Donetsk,48.09823,37.36315,0.569811111,0.620991254,0.156060774,0.164242021,0.614277062,0
Ukrainka,Donetsk,47.92331,36.71928,0.244288889,0.413994169,0.003102746,0.010990025,0.899905628,0
Ukrayinske,Donetsk,47.28564,37.926,0.356577778,0.265306122,0.040106717,0.016223006,0.169109107,0
Ukrayinka,Donetsk,47.27673,37.0915,0.327177778,0.39941691,0.345094087,0.010494694,0.48914178,0
Chervona Ukrayina,Donetsk,47.10587,37.19257,0.276022222,0.27696793,0.159634459,0.012915333,0.383112561,0
Vuhlehirsk,Donetsk,48.31474,38.27423,0.535444444,0.862973761,0.044016386,0.158841839,0.395986453,1
Vuhledar,Donetsk,47.78031,37.25064,0.171177778,0.551020408,0.07024341,0.029138118,0.604889025,1
Udobnyy,Luhansk,49.25,38.01667,0.035711111,0.306122449,0.030655054,0.014118785,0.379773052,0
Udachne,Donetsk,48.23864,36.98663,0.147822222,0.483965015,0.022264696,0.011367429,0.838106291,0
Tsyganovka,Luhansk,49.88472,38.32694,0.476355556,0.358600583,0.284262743,0.006915213,0.072250293,0
Tsukuryne,Donetsk,48.08508,37.31033,0.528377778,0.583090379,0.391787276,0.078963853,0.636284619,0
Tsimlyanka,Luhansk,47.87417,39.28417,0.1297,0.501457726,0.389478262,0.008395459,0.006141561,0
Tsentralno-Bokovskoy,Luhansk,48.13319,39.0747,0.736066667,0.810495627,0.074731195,0.263451949,0.152566771,0
Tsiluykove,Luhansk,49.45719,38.82816,0.051766667,0.233236152,0.620200344,0.00709268,0.209063343,0
Tsarivka,Luhansk,49.83584,38.4431,0.358488889,0.451895044,0.156384802,0.006915213,0.081968062,0
Tsarivka,Luhansk,48.88571,39.05808,0.525133333,0.139941691,0.029009545,0.00784662,0.348723053,0
Truzhenka,Donetsk,47.38154,37.22609,0.527544444,0.50728863,0.048266697,0.010327742,0.483057429,0
Trudove,Donetsk,47.58452,37.38214,0.238866667,0.638483965,0.032584962,0.025781362,0.499367308,0
Trudovoy,Luhansk,49.06961,39.01308,0.436,0.416909621,0.337544562,0.00784662,0.369777672,0
Trudovoy,Luhansk,48.58972,38.73528,0.631177778,0.472303207,0.128915112,0.149706737,0.411131206,0
Trudove,Donetsk,47.89865,37.21711,0.237144444,0.361516035,0.056275613,0.027643038,0.641560613,0
Troyitske,Luhansk,49.9145,38.29277,0.376955556,0.32361516,0.003563565,0.006915213,0.050249111,1
Troyitske,Donetsk,48.82556,37.33124,0.283777778,0.241982507,0.016877596,0.01280105,0.735288294,1
Troyitske,Luhansk,48.52804,38.3747,0.230844444,0.346938776,0.734211449,0.016443633,0.456772534,1
Troitskoye,Donetsk,47.13384,37.65188,0.713144444,0.067055394,0.069743028,0.597568412,0.255371765,0
Troyitsko-Khartsyzk,Donetsk,47.9678,38.26966,0.778455556,0.344023324,0.140863843,0.047793858,0.209360596,0
Troyitske,Donetsk,48.10534,36.94382,0.238233333,0.472303207,0.541221846,0.011367429,0.827313018,1
Tripolye,Donetsk,48.67668,38.25062,0.135222222,0.349854227,0.024175956,0.014050841,0.56566937,0
Tretyakivka,Luhansk,49.13239,39.57854,0.191188889,0.163265306,0.275218569,0.007272797,0.070176278,0
Trembacheve,Luhansk,49.72607,39.14146,0.0585,0.236151603,0.00716699,0.010089722,0.06336223,0
Trokhizbenka,Luhansk,48.75751,38.96333,0.646888889,0.142857143,0.005966463,0.023995524,0.398908282,1
Toshkovka,Luhansk,48.82331,38.56451,0.357322222,0.212827988,0.163328702,0.024862912,0.563472943,1
Toshkivka,Luhansk,48.77914,38.57903,0.342544444,0.381924198,0.098816002,0.210987149,0.537261423,1
Torske,Donetsk,49.01892,37.96026,0.163022222,0.201166181,0.076782395,0.009892355,0.511742896,0
Torez,Donetsk,48.03876,38.59685,0.643522222,0.699708455,0.009053686,0.484818624,0.167236167,1
Toretskyy,Donetsk,48.6069,37.53133,0.383744444,0.326530612,0.145286282,0.438038276,0.73331203,0
Topoli,Luhansk,49.81286,38.15665,0.743711111,0.434402332,0.205501414,0.006915213,0.071981115,0
Tonenke,Donetsk,48.13864,37.64312,0.471166667,0.504373178,0.336829171,0.015156474,0.497941535,1
Tolstoy,Donetsk,48.03722,36.68451,0.320711111,0.279883382,0.076948747,0.010990025,0.951567588,0
Tytarivka,Luhansk,49.23589,38.88023,0.115244444,0.186588921,0.208868693,0.015800481,0.323600023,0
Tyshkivka,Luhansk,49.46632,39.49488,0.061655556,0.510204082,0.302844577,0.007158514,0.128115046,0
Tymonove,Luhansk,49.74762,38.4466,0.487144444,0.32361516,0.306760077,0.006915213,0.128354345,0
Timiryazevskoye,Donetsk,48.08333,38.73333,0.733788889,0.758017493,0.287967617,0.212118801,0.13736186,0
Roza,Donetsk,47.19619,38.00822,0.2879,0.209912536,0.01911171,0.016223006,0.128636193,0
Tetske,Luhansk,49.13824,39.18948,0.078022222,0.256559767,0.307284729,0.015684262,0.275828805,0
Terny,Donetsk,49.09226,37.96081,0.132855556,0.221574344,0.067182509,0.009892355,0.470478641,0
Ternove,Luhansk,49.08684,39.42026,0.187588889,0.530612245,0.515441227,0.00815269,0.142551747,1
Ternove,Donetsk,48.00572,38.56217,0.580166667,0.717201166,0.136320938,0.274094699,0.172628149,1
Ternivka,Luhansk,49.61476,39.48351,0.060788889,0.489795918,0.239018263,0.007461194,0.081451944,0
Teple,Luhansk,48.83683,39.42557,0.677122222,0.16909621,0.041655976,0.011763453,0.164260377,1
Teplohirsk,Luhansk,48.59877,38.59165,0.460044444,0.539358601,0.011443209,0.372913202,0.437784581,1
Telmanove,Donetsk,47.40994,38.02476,0.320844444,0.303206997,0.021969141,0.011152706,0.124330687,1
Tavricheskiy,Donetsk,47.32801,37.86337,0.353833333,0.180758017,0.381349057,0.013887087,0.203912982,0
Tetyanivka,Donetsk,49.03652,37.58793,0.161344444,0.183673469,0.2949624,0.01280105,0.559902069,0
Tatsyne,Luhansk,48.06672,39.21271,0.722222222,0.55393586,0.174189298,0.18685202,0.113300389,0
Tarasivka,Luhansk,49.66424,38.39205,0.286344444,0.274052478,0.010568874,0.006915234,0.182532025,0
Tarasovka,Luhansk,48.53167,39.10972,0.505644444,0.157434402,0.032410645,0.030088421,0.312594449,0
Tarasivka,Donetsk,48.35002,37.55271,0.222866667,0.44606414,0.284213642,0.007055298,0.617165546,0
Taramchuk,Donetsk,47.80513,37.57695,0.487922222,0.562682216,0.048876484,0.027643038,0.432576457,1
Tanyushivka,Luhansk,49.7701,38.93277,0.1098,0.224489796,0.030516178,0.010089722,0.023369274,0
Talove,Luhansk,48.31191,39.66695,0.818622222,0.358600583,0.333407121,0.348198769,0.101810216,0
Talakivka,Donetsk,47.19248,37.7252,0.579388889,0.067055394,0.095822329,0.852598544,0.284888077,1
Tabayevka,Luhansk,49.76625,38.09418,0.548033333,0.460641399,0.470744904,0.006915213,0.094617043,0
Syevyerodonetsk,Luhansk,48.94832,38.49166,0.435955556,0.21574344,0.029011937,0.831669605,0.548028056,1
Sychivka,Luhansk,49.44154,39.59155,0.053788889,0.294460641,0.15093964975774599,0.007158514,0.110710239,0
Sosnove,Donetsk,49.07417,37.55333,0.113722222,0.311953353,0.015829407,0.187196625,0.550365919,0
Svyatogorsk,Donetsk,49.03333,37.56667,0.1249,0.192419825,0.180030037,0.066978601,0.566990741,1
Svyatohorivka,Donetsk,48.48675,37.03881,0.201666667,0.396501458,0.016559653,0.189505823,0.887522581,0
Svobodne,Donetsk,47.53126,37.56374,0.535266667,0.606413994,0.216396179,0.025781362,0.39262056,1
Svobodne,Donetsk,47.36357,38.06212,0.249566667,0.268221574,0.01380899,0.011152706,0.095908336,1
Svystuny,Donetsk,47.91669,38.54831,0.291377778,0.212827988,0.256341474,0.011285318,0.141458247,0
Svystunivka,Luhansk,49.48396,38.33864,0.156155556,0.329446064,0.756324111,0.010873341,0.280024846,0
Svitle,Luhansk,49.37755,38.65392,0.069844444,0.460641399,0.127423404,0.015780897,0.292312388,0
Svetlodarsk,Donetsk,48.43374,38.22331,0.418666667,0.527696793,0.262338662,0.017278749,0.468422843,1
Svetlichnoye,Luhansk,48.76917,38.65361,0.300466667,0.172011662,0.120106209,0.088218352,0.520134993,0
Sverdlovsk,Luhansk,48.08964,39.65243,0.628977778,0.790087464,0.004504239,0.308849238,0.087036575,1
Sverdlove,Donetsk,48.0288,38.05612,0.760455556,0.714285714,0.122554333,0.48748702,0.29401815,0
Sverdlovka,Luhansk,49.33014,37.91556,0.143222222,0.346938776,0.313655817,0.010732034,0.341041532,0
Svatove,Luhansk,49.41029,38.15035,0.074822222,0.204081633,0.021315325,0.010873341,0.296547701,1
Suzhenka,Donetsk,47.14755,37.09686,0.203977778,0.253644315,0.367424739,0.011944107,0.440393179,0
Suvorove,Donetsk,48.38676,37.25933,0.290577778,0.49271137,0.33780739,0.010033077,0.754199704,0
Sutagan,Luhansk,48.485,39.01833,0.408033333,0.32361516,0.067993917,0.030088415,0.349523253,0
Sukhoy Baglay,Luhansk,49.40638,38.53389,0.147566667,0.361516035,0.37025916,0.010873341,0.308056772,0
Sukhoy,Luhansk,49.38333,39.95,0.173455556,0.376093294,0.259943735,0.007947846,0.102275268,0
Sukhodilsk,Luhansk,48.35022,39.72698,0.725666667,0.580174927,0.157891296,0.125030326,0.068359121,1
Sukhodol,Luhansk,48.70482,38.8864,0.579011111,0.434402332,0.15201981,0.023995524,0.43747547,0
Sukhodol,Luhansk,48.57611,39.5725,0.735055556,0.134110787,0.452115055,0.011763453,0.053251007,0
Sukhodil,Luhansk,48.59306,39.04111,0.468411111,0.166180758,0.218078206,0.023995524,0.347745575,1
Sukhi Yaly,Donetsk,47.94495,37.12224,0.339411111,0.317784257,0.295296911,0.027643038,0.700691597,0
Sukhetske,Donetsk,48.37747,37.2221,0.410288889,0.548104956,0.485341409,0.009655028,0.767681308,0
Sukhanivka,Luhansk,49.18232,38.73068,0.0661,0.320699708,0.247401024,0.015800481,0.373557009,0
Styla,Donetsk,47.69529,37.84306,0.652811111,0.300291545,0.024876339,0.018529607,0.270231858,1
Pysarivka,Luhansk,49.5,39.08333,0.049866667,0.186588921,0.048474423,0.010089722,0.180933593,0
Stryukove,Luhansk,48.18093,38.58874,0.4555,0.574344023,0.595912548,0.009553071,0.227275515,0
Stroyitel,Donetsk,47.71684,38.2209,0.542777778,0.457725948,0.219420646,0.016323176,0.099973923,1
Striltsivka,Luhansk,49.30367,39.85276,0.150011111,0.227405248,0.014202131,0.007947846,0.115970286,0
Stizhkivske,Donetsk,48.11333,38.4925,0.587422222,0.749271137,0.435172,0.051711103,0.239603215,0
Stoyany,Donetsk,47.76667,38.18333,0.5235,0.387755102,0.400994228,0.017927729,0.134501679,0
Stepnyy Yar,Luhansk,48.97641,38.85935,0.6844,0.457725948,0.028900794,0.00784662,0.454821949,0
Stepne,Luhansk,49.67295,39.32896,0.066144444,0.478134111,0.303853852,0.010089722,0.042288785,1
Stepnoye,Luhansk,48.4,39.13333,0.643322222,0.271137026,0.072756252,0.030088415,0.305810831,1
Stepne,Donetsk,47.79603,37.54695,0.493055556,0.56851312,0.023337682,0.027643038,0.446719229,1
Stepanovka,Donetsk,48.61243,37.02018,0.144355556,0.393586006,0.05537568,0.009694312,0.934436166,1
Stepanivka,Donetsk,48.46669,37.61363,0.248522222,0.454810496,0.12003068,0.007055298,0.642867766,1
Stepanovka,Luhansk,48.45028,38.55139,0.627,0.827988338,0.087400265,0.07427186,0.368449159,0
Stepanivka,Donetsk,47.92619,38.80609,0.492455556,0.524781341,0.031473715,0.007299015,0.039644943,1
Stepanovka,Donetsk,47.23333,37.28333,0.413877778,0.448979592,0.140224278,0.010494694,0.397001187,1
Azovske,Donetsk,46.9575,37.34222,0.775288889,0.084548105,0.041570482,0.013302488,0.265378702,1
Stepano-Krynka,Donetsk,47.92343,38.33347,0.492622222,0.341107872,0.017070384,0.015541879,0.175938646,1
Stelmakhivka,Luhansk,49.48861,37.90639,0.063922222,0.428571429,0.082637943,0.010873341,0.255368607,0
Statyvchyne,Luhansk,49.5916,38.81549,0.068033333,0.460641399,0.213368295,0.00709268,0.141701464,0
Staryy Krym,Donetsk,47.16146,37.48934,0.607622222,0.131195335,0.010419078,0.500185659,0.29922098,1
Staryy Karavan,Donetsk,48.92012,37.78296,0.252088889,0.204081633,0.533197718,0.009971156,0.583270915,1
Aerodrom,Donetsk,47.13218,37.55873,0.676155556,0.096209913,0.13502304,0.944771236,0.268299906,1
Staryy Aydar,Luhansk,48.72184,39.18389,0.661488889,0.137026239,0.262534721,0.062521787,0.272907191,1
Staromlynivka,Donetsk,47.69754,36.82474,0.226311111,0.349854227,0.027589738,0.010990025,0.764342483,0
Staromykhaylivka,Donetsk,47.99141,37.58596,0.4508,0.545189504,0.191224063,0.410761159,0.475491222,0
Staromayorske,Donetsk,47.75166,36.79373,0.326355556,0.329446064,0.194942428,0.010990025,0.798807958,0
Staromaryivka,Donetsk,47.44273,37.86948,0.417444444,0.110787172,0.027021279,0.011152706,0.213225462,1
Starohnativka,Donetsk,47.54145,37.78174,0.622477778,0.285714286,0.004171091,0.011152706,0.279691512,1
Starodubivka,Donetsk,48.88897,37.79354,0.191055556,0.204081633,0.649498635,0.011412446,0.59895668,0
Starodubivka,Donetsk,47.10422,37.03855,0.209622222,0.174927114,0.012410418,0.012604756,0.454257131,0
Starobesheve,Donetsk,47.75038,38.03051,0.677666667,0.367346939,0.011846745,0.018529607,0.190653411,1
Starobelskiy,Luhansk,49.51667,39.45,0.066066667,0.524781341,0.129691969,0.007158514,0.128721801,0
Starobilsk,Luhansk,49.27832,38.91069,0.129411111,0.180758017,0.001326025,0.015800481,0.297726067,1
Starchenkove,Donetsk,47.26857,36.98115,0.304633333,0.416909621,0.038726234,0.010494694,0.533652713,0
Starolaspa,Donetsk,47.56028,37.98492,0.648955556,0.198250729,0.042776203,0.014541211,0.173927489,1
Stara Krasnyanka,Luhansk,49.03583,38.29003,0.459844444,0.166180758,0.001024618,0.166457224,0.516874645,1
Stanytsya Luhanska,Luhansk,48.65433,39.47943,0.821011111,0.131195335,0.233129447,0.011763453,0.101941071,1
Stalino,Donetsk,47.31667,38.01667,0.335488889,0.21574344,0.011414749,0.011871172,0.117248748,0
Pidhirne,Donetsk,47.68361,38.06335,0.713366667,0.253644315,0.281798243,0.018529607,0.155177878,1
Stakhanov,Luhansk,48.56818,38.64352,0.4834,0.632653061,0.008051527,0.47489219,0.41282682,1
Sribne,Donetsk,48.10552,37.01418,0.204011111,0.486880466,0.443466035,0.011367429,0.790945472,0
Serednye,Donetsk,49.12363,37.70826,0.142755556,0.27696793,0.180350017,0.009892355,0.486991874,0
Srednyaya Teplaya,Luhansk,48.81667,38.38333,0.213922222,0.367346939,0.478927633,0.016443633,0.595892964,0
Spivakivka,Luhansk,49.04512,38.90752,0.4634,0.16909621,0.21868263,0.00784662,0.428077418,0
Spasko-Mykhaylivka,Donetsk,48.58096,36.92487,0.078788889,0.367346939,0.244170144,0.009694296,0.941766404,0
Spasovskiy,Luhansk,49.21167,40.00361,0.174922222,0.27696793,0.888550298,0.007943849,0.023515157,0
Spartak,Luhansk,48.21611,39.33056,0.277833333,0.481049563,0.235345031,0.024189942,0.191250324,1
Sovetskiy,Donetsk,47.35694,38.18806,0.192222222,0.069970845,0.037164059,0.011152706,0.028038693,0
Sotsmisto,Donetsk,48.73598,37.5946,0.446611111,0.393586006,0.122968857,0.257046466,0.714148074,0
Sosnivske,Donetsk,47.29764,37.90671,0.285733333,0.2303207,0.184777849,0.014171929,0.179494991,0
Solovyove,Donetsk,48.22411,37.59988,0.379888889,0.620991254,0.049669859,0.015156474,0.5483248,0
Solontsi,Luhansk,49.90341,38.14364,0.592955556,0.504373178,0.38251265,0.006915213,0.020469065,0
Solntsevo,Donetsk,47.61667,36.76667,0.2193,0.364431487,0.235143181,0.010040301,0.754150803,1
Sontseve,Donetsk,47.53982,38.03153,0.5015,0.387755102,0.069659958,0.01767062,0.146566634,1
Solidarne,Luhansk,49.78641,38.61687,0.141377778,0.489795918,0.051099543,0.007089859,0.099559466,1
Sol,Donetsk,48.71859,38.03404,0.155022222,0.209912536,0.084220197,0.188576489,0.653362181,0
Sokilnyky,Luhansk,48.74824,38.86863,0.617722222,0.172011662,0.022512155,0.023995524,0.450660282,1
Sofye-Kondratyevka,Donetsk,48.23972,38.14306,0.640177778,0.443148688,0.195797808,0.33336632188181903,0.377463979,0
Sofiyivskyy,Luhansk,48.21519,38.87395,0.742377778,0.909620991,0.090274161,0.010149507,0.191624325,0
Sofiyivka,Donetsk,48.74116,37.51469,0.430711111,0.212827988,0.099379507,0.257046466,0.728353624,0
Sofiyivka,Donetsk,48.70516,36.86525,0.070111111,0.300291545,0.030203845,0.009694312,0.86751294,0
Sofiyivka,Luhansk,48.37444,38.56972,0.592011111,0.658892128,0.022880837,0.046204684,0.325535329,0
Sofiyevka,Donetsk,48.25,38.15,0.650966667,0.513119534,0.232520566,0.33336632188181903,0.38161982,1
Snizhne,Donetsk,48.02612,38.77225,0.781366667,0.84548105,0.049726407,0.252760896,0.09907672,1
Smolyanynove,Luhansk,48.94471,38.70748,0.207577778,0.317784257,0.032207543,0.00784662,0.505553914,0
Smile,Luhansk,48.67589,38.91634,0.549177778,0.32361516,0.002678525,0.023995524,0.419112432,1
Slyusarevo-Shurupovo,Donetsk,47.58333,38.26667,0.427744444,0.218658892,0.057272905,0.018529607,0.027715313,0
Sloviansk,Donetsk,48.86667,37.61667,0.477955556,0.177842566,0.105828793,0.660371356,0.640814766,1
Slov`yanoserbsk,Luhansk,48.69779,38.98133,0.630044444,0.198250729,0.017044409,0.023995524,0.383802755,1
Svyatohirsk,Donetsk,49.0382,37.56708,0.1249,0.192419825,0.168998816,0.066978601,0.564451392,1
Skudne,Donetsk,47.90998,36.79889,0.3969,0.297376093,0.120186714,0.010990025,0.866200173,1
Skorodna,Luhansk,49.49342,39.48805,0.066544444,0.527696793,0.134738938,0.007158514,0.120213904,0
Skorodna,Luhansk,49.36667,39.51667,0.057188889,0.250728863,0.511062774,0.0072661,0.166745038,0
Skelevaya,Luhansk,48.44639,38.30389,0.290844444,0.498542274,0.100402886,0.014942942,0.445506736,0
Skarhivka,Luhansk,49.21469,38.47608,0.193844444,0.250728863,0.329384244,0.014231971,0.420445105,0
Syze,Luhansk,48.59891,39.62811,0.661877778,0.113702624,0.565436172,0.01053274,0.019605886,0
Sirotskiy,Donetsk,47.26667,38.03333,0.208011111,0.253644315,0.346132673,0.014409061,0.110969082,0
Syrotyne,Luhansk,50.05318,38.29488,0.176577778,0.326530612,0.101511967,0.00694249,0.00915652,1
Syrotyne,Luhansk,48.91572,38.51495,0.503822222,0.157434402,0.268036606,0.1773785,0.558708782,1
Kalinine,Donetsk,48.34748,36.83087,0.068644444,0.297376093,0.061292335,0.0100405,0.944704379,0
Synelnykove,Luhansk,49.71811,38.7954,0.127677778,0.422740525,0.051237649,0.009821362,0.091401644,0
Sydorove,Donetsk,48.98407,37.60214,0.227777778,0.189504373,0.073652995,0.012634672,0.583093355,0
Shulikivka,Luhansk,49.31641,39.49368,0.083211111,0.2303207,0.154452232,0.007272797,0.181188906,0
Shulhynka,Luhansk,49.14792,38.92906,0.155511111,0.160349854,0.052110091,0.015800481,0.370206827,0
Shubovka,Luhansk,49.73141,38.13792,0.438844444,0.533527697,0.600822505,0.006915213,0.116831864,0
Shtormove,Luhansk,49.10077,38.91345,0.286,0.160349854,0.04237103,0.008255764,0.397400114,0
Shterivka,Luhansk,48.31382,38.94429,0.372,0.545189504,0.287027842,0.127298283,0.249902913,1
Shterovka,Luhansk,48.22001,38.955,0.620444444,0.965014577,0.136494766,0.01393411,0.198528419,0
Shtergres,Luhansk,48.08861,38.91139,0.4756,0.326530612,0.066219748,0.367378859,0.121466823,1
Shpotyne,Luhansk,49.17855,39.19339,0.067422222,0.300291545,0.289394283,0.015800481,0.278791411,0
Shostakivka,Donetsk,48.66455,36.92292,0.127088889,0.335276968,0.297135948,0.06521727,0.895041333,0
Sholokhovskiy,Donetsk,47.95,37.95,0.855666667,0.481049563,0.09882136,0.770392552,0.299059586,0
Shmidta,Luhansk,48.39972,39.38611,0.2529,0.539358601,0.670249934,0.029039802,0.196405855,0
Shyshkove,Luhansk,48.64531,39.22328,0.641522222,0.463556851,0.345957209,0.023995524,0.245118504,1
Shyroke,Donetsk,47.95711,38.2316,0.737111111,0.419825073,0.345621635,0.032072673,0.210559344,0
Shyrokyy,Luhansk,48.83146,39.6381,0.906122222,0.49271137,0.004756332,0.011763453,0.061959928,1
Shirokiy,Luhansk,48.42139,39.73944,0.515488889,0.262390671,0.391233336,0.010288488,0.069612796,1
Shyroke,Donetsk,47.5591,38.14727,0.388511111,0.29154519,0.404269899,0.018529607,0.083758258,1
Shirokino,Donetsk,47.09874,37.81993,0.5901,0.058309038,0.013456891,0.016223006,0.237727258,1
Shyroka Balka,Donetsk,48.30341,37.93055,0.792755556,0.413994169,0.268053784,0.353818056,0.462446708,1
Shypylivka,Luhansk,48.96728,38.27286,0.297611111,0.241982507,0.440241143,0.042951806,0.553579137,0
Shylivka,Donetsk,48.3778,36.95028,0.068733333,0.379008746,0.041332627,0.009454298,0.895264295,0
Shilov,Luhansk,49.75,38.6,0.140711111,0.498542274,0.100791085,0.00709268,0.121546577,1
Verkhnyaya Shevyrevka,Luhansk,48.26317,39.7073,0.845077778,0.198250729,0.040560282,0.167842464,0.087140948,0
Shevyrevka,Donetsk,47.18333,38.11667,0.369466667,0.090379009,0.037250859,0.016223006,0.06759564,0
Shevtsov,Luhansk,49.89624,38.59702,0.250488889,0.478134111,0.2471743,0.006915213,0.04419773,0
Shevchenko,Luhansk,49.19048,38.58812,0.120622222,0.212827988,0.227921239,0.014357757,0.401886572,0
Shevchenko,Donetsk,48.65532,37.99251,0.2097,0.288629738,0.001263136,0.172778854,0.626902629,0
Shevchenko,Donetsk,48.62142,36.86708,0.057977778,0.498542274,0.157652778,0.009694312,0.914498677,0
Shevchenko,Donetsk,48.2197,37.14472,0.1612,0.548104956,0.035039205,0.125398943,0.755233669,0
Shevchenko,Donetsk,47.90112,36.68192,0.243844444,0.387755102,0.118526924,0.010990025,0.903855369,0
Shevchenko,Donetsk,47.7274,37.14788,0.215433333,0.498542274,0.220576276,0.026824812,0.650567919,0
Shevchenko,Donetsk,47.71028,38.20667,0.551788889,0.43148688,0.185880344,0.018030426,0.101877312,0
Shevchenko,Donetsk,47.50279,38.25553,0.344,0.209912536,0.063782736,0.017464417,0.021882813,0
Shevchenko,Donetsk,47.2711,37.986,0.291755556,0.2303207,0.229229357,0.016184869,0.136611462,0
Shevchenko,Donetsk,47.25295,37.45355,0.676222222,0.227405248,0.049173234,0.010494694,0.354458488,0
Shovkunivka,Luhansk,49.54296,38.5708,0.142888889,0.521865889,0.065935126,0.007131909,0.229281609,0
Shovkova Protoka,Luhansk,48.30518,39.25478,0.318722222,0.516034985,0.14128228,0.030088421,0.246472864,0
Shelestivka,Luhansk,49.48667,39.91824,0.131944444,0.329446064,0.079255989,0.007947846,0.041917154,0
Shchurove,Donetsk,48.96108,37.71581,0.219322222,0.192419825,0.218422748,0.00991604,0.571627041,0
Shekhovo,Luhansk,48.21722,39.19806,0.739577778,0.559766764,0.281681258,0.023090694,0.198629624,0
Shchotove,Luhansk,48.18146,39.11381,0.863633333,0.889212828,0.446844192,0.132773912,0.182468063,0
Shcherbinovskiy,Donetsk,48.36667,37.66667,0.282855556,0.39941691,0.32743973,0.007055298,0.580740082,0
Shcherbinovka,Donetsk,48.43333,37.83333,0.389533333,0.44606414,0.624906223,0.007055298,0.553746855,0
Shcherbynivka,Donetsk,48.39489,37.79102,0.192488889,0.294460641,0.434103695,0.18466902,0.549073271,0
Shcherbak,Donetsk,47.21787,38.19856,0.373988889,0.204081633,0.121872384,0.016223006,0.024248382,0
Shchebenka,Donetsk,48.19288,38.13976,0.688222222,0.425655977,0.074278356,0.185515552,0.353342237,0
Shavrove,Donetsk,48.74067,37.19397,0.178011111,0.518950437,0.081752836,0.009694312,0.8183563,0
Sharivka,Luhansk,49.85224,38.89932,0.118055556,0.253644315,0.405268748,0.0076533,0.008927969,0
Sharapkino,Luhansk,48.08333,39.63333,0.716066667,0.731778426,0.025852961,0.486214489,0.096199972,0
Shapovalovka,Luhansk,49.57899,38.35462,0.109688889,0.486880466,0.397544976,0.009952016,0.232275804,0
Shaposhnikova,Donetsk,47.75222,38.39611,0.422755556,0.355685131,0.205064427,0.015849296,0.073478018,0
Shaparivka,Luhansk,49.49636,38.85277,0.046455556,0.244897959,0.383463907,0.00709268,0.183977322,0
Shandryholove,Donetsk,49.10025,37.71754,0.199633333,0.271137026,0.098953383,0.009892355,0.497329351,0
Shakhtne,Donetsk,47.98365,38.28207,0.844122222,0.332361516,0.105668676,0.047793858,0.21623159,0
Shakhtarske,Donetsk,47.8626,37.00216,0.482088889,0.472303207,0.056564594,0.010990025,0.752158162,0
Shakhterskiy,Luhansk,48.13471,39.10784,0.765388889,0.857142857,0.149281411,0.184964053,0.155919365,0
Shakhtarsk,Donetsk,48.05657,38.43826,0.746333333,0.752186589,0.051169293,0.363897236,0.236814163,1
Shakhta Tomasha,Luhansk,48.98917,38.35222,0.380155556,0.189504373,0.215664593,0.312205017,0.54961932,0
Shakhove,Luhansk,49.8028,38.4895,0.3518,0.44606414,0.189249073,0.006915213,0.093421657,0
Shabelkivka,Donetsk,48.75224,37.49368,0.377277778,0.309037901,0.193551397,0.250253233,0.727523139,1
Siversk,Donetsk,48.86699,38.10007,0.137666667,0.201166181,0.002638455,0.013675658,0.596944905,1
Syevero-Hundorivskyy,Luhansk,48.37252,39.88382,0.816766667,0.344023324,0.200574331,0.208380204,0.016066628,0
Severnyy Rudnik,Donetsk,48.4,37.91667,0.688566667,0.67638484,0.358257887,0.054823437,0.513287353,0
Syevernyy,Luhansk,48.3525,39.91751,0.827811111,0.396501458,0.17591807,0.131385972,1.16061746426976e-4,1
Syeverne,Donetsk,48.09555,38.68357,0.6146,0.717201166,0.043830218,0.190255736,0.156974399,1
Sergeyevskiy,Luhansk,48.98472,39.16306,0.284866667,0.174927114,0.10912884,0.00784662,0.283376059,0
Serhiyivka,Donetsk,48.67066,37.37555,0.328866667,0.344023324,0.226946512,0.024863827,0.798325843,0
Novoserhiyivka,Donetsk,48.5336,36.9172,0.057222222,0.562682216,0.169699964,0.009476544,0.958759773,0
Serhiyivka,Donetsk,48.31249,36.92586,0.077688889,0.379008746,0.039645445,0.011367429,0.888306538,0
Serhiyivka,Donetsk,47.2712,37.20944,0.384755556,0.376093294,0.104368348,0.010494694,0.440297958,0
Serebryanyy,Donetsk,48.1,37.03333,0.283266667,0.489795918,0.315182969,0.011367429,0.779810142,0
Serebryanka,Donetsk,48.91917,38.13494,0.168377778,0.224489796,0.01645056,0.013914635,0.569190318,1
Serdyte,Donetsk,48.03968,38.39395,0.761566667,0.749271137,0.02799526,0.050579242,0.229844375,0
Serbinov,Donetsk,47.23472,38.12583,0.257911111,0.087463557,0.098433351,0.016223006,0.066093805,0
Sentyanovka,Luhansk,48.66972,38.75028,0.484311111,0.236151603,0.214435589,0.023995524,0.454023957,1
Senkove,Luhansk,49.14556,39.2532,0.133711111,0.271137026,0.165782508,0.013764575,0.241489425,0
Semykozivka,Luhansk,49.23718,39.56992,0.173722222,0.195335277,0.109024205,0.007272797,0.12074609,0
Semigorye,Donetsk,48.46751,38.14582,0.386422222,0.478134111,0.40257362,0.013675658,0.499803634,1
Simeykyne,Luhansk,48.32643,39.53366,0.810566667,0.580174927,0.063228153,0.334573738,0.171976728,0
Semenivske,Donetsk,47.85315,38.75521,0.196111111,0.518950437,0.011002017,0.013580307,0.034366252,0
Semenivka,Donetsk,48.85038,37.68519,0.419822222,0.186588921,0.01075825,0.336796675,0.636369404,1
Selydove,Donetsk,48.14708,37.30032,0.515322222,0.486880466,0.028480111,0.306978424,0.6589089,0
Seleznivka,Luhansk,48.3927,38.78758,0.4582,0.419825073,0.051632324,0.046204684,0.296384336,0
Volcheyarovka Nomer Pervyy,Luhansk,48.85139,38.38806,0.225655556,0.227405248,0.264137805,0.095749446,0.61255897,0
Syedovo-Vasylivka,Donetsk,47.22315,38.11315,0.257911111,0.087463557,0.134223836,0.016223006,0.07149695,0
Syedove,Donetsk,47.07678,38.15602,0.548833333,0.005830904,0.260763152,0.016223006,0.073252605,1
Sedovka,Donetsk,47.1275,38.06444,0.338422222,0.093294461,0.014625886,0.016223006,0.103043,0
Shchastya,Luhansk,48.73963,39.2323,0.711111111,0.131195335,0.019269608,0.15674363,0.248651341,1
Zbirne,Luhansk,48.48667,39.11472,0.538511111,0.416909621,0.241285075,0.030088415,0.314823193,1
Sazonov,Donetsk,47.26667,37.86667,0.288533333,0.285714286,0.437118539,0.016209845,0.203571241,0
Savelyevka,Donetsk,48.29444,38.34194,0.543288889,0.839650146,0.141715794,0.157829628,0.369967825,0
Saurivka,Donetsk,47.90666,38.75545,0.3381,0.440233236,0.273386541,0.008226592,0.051349549,0
Pishchane,Donetsk,47.77362,37.87007,0.592433333,0.536443149,0.046352755,0.018529607,0.274818088,0
Samsonove,Donetsk,47.29118,38.15451,0.133911111,0.058309038,0.185366744,0.015208873,0.041324264,1
Samsonivka,Luhansk,48.36963,39.62113,0.7444,0.562682216,0.513713826,0.085114366,0.129083258,1
Samsonove,Donetsk,47.09982,38.00313,0.391222222,0.032069971,0.017921632,0.016223006,0.140783503,1
Samozdrino,Donetsk,47.65,38.11667,0.634122222,0.341107872,0.166351145,0.018529607,0.119615234,0
Samarskoye,Donetsk,48.63436,37.10667,0.116055556,0.408163265,0.406342728,0.009694312,0.895810828,0
Sakhanka,Donetsk,47.12724,37.86005,0.469466667,0.157434402,0.111123051,0.016223006,0.21535679,1
Sadovyy,Donetsk,47.88333,36.63333,0.158233333,0.413994169,0.199324265,0.010990025,0.914554801,0
Sadove,Donetsk,47.19064,36.93491,0.269733333,0.259475219,0.287952965,0.010040771,0.529662615,0
Sadove,Donetsk,48.03194,38.39833,0.761566667,0.67638484,0.020107991,0.050579242,0.2251517,0
Sadovo-Khrustalnenskyy,Luhansk,48.15104,38.72799,0.603366667,0.539358601,0.134205614,0.272237502,0.173851798,0
Sadky,Luhansk,49.30814,39.25276,0.196566667,0.527696793,0.00318727,0.014485982,0.252247747,0
Sadky,Donetsk,47.37924,38.19168,0.186044444,0.087463557,0.011327685,0.011152706,0.033122772,0
Sabovka,Luhansk,48.43333,38.61667,0.499755556,0.542274052,0.252841387,0.173215439,0.345067993,0
Sabivka,Luhansk,48.58829,39.14742,0.454811111,0.15451895,0.082228147,0.090504628,0.287962598,0
Rybyantsevo,Luhansk,49.48374,39.02473,0.035722222,0.186588921,0.266778052,0.010089722,0.182296662,0
Rybynske,Donetsk,47.57881,37.58286,0.529144444,0.66180758,0.078290028,0.025781362,0.391284837,0
Rybachiy,Donetsk,46.93528,37.29194,0.795133333,-0.005830904,0.10180204,0.013302488,0.28266987,0
Ruttschenkowo,Donetsk,47.9716,37.68309,0.500044444,0.696793003,0.36239892,0.770392552,0.423040868,0
Rusyn Yar,Donetsk,48.45089,37.50232,0.185622222,0.478134111,0.3471856,0.007055298,0.678073904,0
Rusko-Orlivka,Donetsk,47.95285,38.37703,0.510088889,0.309037901,0.287439286,0.014196493,0.183726996,1
Rumyantsevo,Donetsk,48.34285,38.068,0.712488889,0.851311953,0.003056623,0.354250406,0.446936767,0
Rudivka,Luhansk,49.63361,39.57194,0.057755556,0.521865889,0.035250728,0.007158514,0.03608478,0
Rudove,Luhansk,49.62703,38.62332,0.092277778,0.469387755,0.355515055,0.00709268,0.173750113,0
Rudivka,Luhansk,49.40108,38.45127,0.335088889,0.346938776,0.371025968,0.010873341,0.321136916,0
Rudnichnyy,Luhansk,48.06667,39.06667,0.5478,0.565597668,0.089620844,0.320584667,0.11477283,0
Rubtsi,Donetsk,49.17906,37.56609,0.160133333,0.38483965,0.383671354,0.00926514,0.495845675,0
Rubezhnoye,Donetsk,48.21667,37.33333,0.266577778,0.60058309,0.340526055,0.057780438,0.663958803,0
Rubizhne,Luhansk,49.01229,38.37967,0.430433333,0.212827988,0.079756765,0.611891882,0.540672875,1
Rubizhne,Donetsk,48.51125,37.19593,0.104544444,0.440233236,0.219954042,0.009454298,0.826380339,0
Rubashkino,Luhansk,48.61667,38.43333,0.305433333,0.562682216,0.13539706,0.016443633,0.482339252,0
Rubashkyne,Donetsk,47.85444,38.61981,0.309966667,0.157434402,0.137177668,0.015849296,0.093591102,0
Rozsadky,Donetsk,48.43154,38.35029,0.299388889,0.629737609,0.167047967,0.015472598,0.421921341,1
Rozivka,Donetsk,48.28509,37.77446,0.393433333,0.594752187,0.256207006,0.015156474,0.505995566,1
Kurakhove,Donetsk,47.98437,37.27909,0.301888889,0.425655977,0.017066738,0.027643038,0.626572002,1
Rovenky,Luhansk,48.08331,39.37764,0.499144444,0.772594752,0.032506815,0.228618299,0.116282127,1
Rozsypne,Luhansk,49.96598,38.61269,0.354688889,0.527696793,0.702666768,0.0090776,0.005991723,1
Rozsokhuvate,Luhansk,49.54361,39.64333,0.045977778,0.501457726,0.100851428,0.007158514,0.046342312,0
Rozkishne,Luhansk,48.48959,39.27881,0.481911111,0.177842566,0.176773946,0.194714248,0.225372084,1
Romanivka,Luhansk,49.67045,38.93264,0.029044444,0.402332362,0.08494365,0.008103431,0.076934777,0
Romanivka,Donetsk,48.36686,37.72041,0.198811111,0.521865889,0.00344321,0.007055298,0.560930798,0
Romanivka,Donetsk,47.89935,37.28776,0.197144444,0.358600583,0.09952324,0.027643038,0.604074363,0
Rohove,Luhansk,49.62241,39.03123,0.073255556,0.192419825,0.06934282,0.010089722,0.106918475,0
Rogalik,Luhansk,48.78917,39.25167,0.629677778,0.116618076,0.20858482,0.013047243,0.247230975,0
Rodnykove,Donetsk,47.68288,37.94969,0.782911111,0.244897959,0.276353638,0.018529607,0.211675447,0
Rodynske,Donetsk,48.35199,37.20602,0.409122222,0.559766764,0.32786223,0.241993672,0.766507644,1
Rodakove,Luhansk,48.55722,39.02375,0.438944444,0.33819242,0.396050866,0.023995524,0.35891439,1
Riznikivka,Donetsk,48.83685,38.00282,0.138155556,0.2303207,0.338160713,0.012908063,0.613042542,0
Respublika,Donetsk,47.25189,37.20158,0.384755556,0.311953353,0.028560805,0.010494694,0.435220168,1
Resh-Khreshchatik,Donetsk,47.48333,38.1,0.353966667,0.32361516,0.346395484,0.01122655,0.107822965,0
Reshetilovka,Luhansk,48.95,39.76667,0.575344444,0.151603499,0.319724541,0.00982616,0.006293002,0
Removka,Donetsk,47.99611,38.78667,0.862355556,0.740524781,0.112665095,0.107232763,0.080369847,0
Ridkodub,Donetsk,49.18398,37.80042,0.154311111,0.466472303,0.099150414,0.009918919,0.437250563,1
Rebrykove,Luhansk,48.21118,39.28452,0.368766667,0.469387755,0.004606445,0.030088421,0.191678019,0
Rebrykove,Donetsk,47.69563,38.08286,0.6448,0.320699708,0.174422186,0.018529607,0.149172232,0
Rozivka,Donetsk,47.50814,38.15525,0.257677778,0.303206997,0.481166419,0.016082044,0.076633243,1
Rozdollya,Donetsk,48.68934,37.00856,0.162877778,0.311953353,0.180069878,0.009694312,0.890653035,0
Rozdolivka,Donetsk,48.75388,38.08197,0.095533333,0.227405248,0.252414227,0.013675658,0.658583915,0
Rozdolne,Donetsk,47.61736,38.01894,0.805833333,0.195335277,0.186082244,0.018529607,0.162153058,1
Razdolinovka,Luhansk,48.51944,39.27833,0.543977778,0.174927114,0.182204023,0.607926917,0.220775368,0
Rayskoye,Donetsk,48.57354,37.46046,0.249244444,0.247813411,0.124680548,0.014096788,0.745418203,0
Rayskoye,Donetsk,48.56667,37.41667,0.169577778,0.227405248,0.217361778,0.025986311,0.758933427,0
Rayhorodok,Donetsk,48.89848,37.72692,0.370766667,0.180758017,0.285077403,0.01280105,0.603435344,1
Rayhorodka,Luhansk,49.37944,37.95972,0.1473,0.314868805,0.10323594,0.010873341,0.309458288,1
Rayhorodka,Luhansk,48.81863,39.05566,0.709555556,0.134110787,0.022949575,0.00784662,0.356927439,1
Rayevka,Luhansk,49.59249,38.53777,0.1382,0.472303207,0.240854848,0.007957201,0.21059744,0
Rayivka,Luhansk,48.68479,39.18285,0.668933333,0.134110787,0.464438804,0.021934854,0.270048987,0
Ray-Oleksandrivka,Donetsk,48.81064,37.8518,0.101977778,0.440233236,0.391247814,0.012287864,0.635950348,0
Rivnopil,Donetsk,47.78684,36.70042,0.148655556,0.475218659,0.234089979,0.011017959,0.848872179,0
Rivnopil,Donetsk,47.55597,37.23384,0.301777778,0.530612245,0.044474181,0.025781362,0.563617534,0
Ratki,Donetsk,47.1,37.7,0.728622222,0.172011662,0.164547713,0.326700049,0.233210128,0
Rozsypne,Donetsk,48.14966,38.57619,0.509466667,0.728862974,0.710924002,0.133927827,0.218246624,1
Rassypnoy,Luhansk,48.63972,39.18083,0.525022222,0.425655977,0.297147891,0.023995524,0.268872454,0
Rozsypne,Donetsk,48.13214,38.57369,0.536411111,0.915451895,0.597119402,0.133927827,0.211976081,0
Rozpasiyivka,Luhansk,49.82974,38.38205,0.507211111,0.483965015,0.165492627,0.006915213,0.089969351,0
Shmidta,Donetsk,47.7192,38.1752,0.506066667,0.478134111,0.13744107,0.018030426,0.117125537,0
Rafaylivka,Luhansk,48.11844,39.20114,0.723855556,0.801749271,0.346834592,0.010149507,0.14303589,0
Pyatigorovka,Luhansk,48.35083,39.39333,0.2529,0.349854227,0.687567707,0.029603248,0.211942295,0
Putnev,Luhansk,49.71667,38.8,0.127677778,0.463556851,0.041151392,0.009821362,0.091338379,0
Putilovka,Donetsk,48.06035,37.79295,0.692222222,0.530612245,0.113194503,0.341997379,0.405672117,0
Putylyne,Luhansk,48.82812,38.86521,0.617266667,0.364431487,0.412248794,0.016304623,0.461689553,0
Puteprovid,Donetsk,48.15015,38.05127,0.638877778,0.70845481,0.123151813,0.287597132,0.353192703,0
Pustynka,Donetsk,48.16227,37.17893,0.178011111,0.440233236,0.432915659,0.011367429,0.722266742,0
Psyenychne,Luhansk,49.07896,38.34758,0.462488889,0.311953353,0.33999065,0.159128733,0.499728086,0
Proyizhdzhe,Luhansk,49.38797,38.98222,0.098133333,0.198250729,0.192816074,0.014505583,0.234000611,0
Provallya,Luhansk,48.14737,39.82862,0.786255556,0.443148688,0.02230086,0.005102762,0.036274222,1
Prosyane,Luhansk,49.59222,39.66556,0.059366667,0.498542274,0.121134406,0.007180375,0.016268793,0
Promin,Luhansk,49.33333,37.93333,0.143222222,0.352769679,0.385894269,0.01078273,0.33744356,0
Proletarske,Donetsk,48.0159,38.09979,0.784,0.618075802,0.197866312,0.654455528,0.274288219,0
Proletarskyy,Luhansk,48.1339,39.256,0.4738,0.819241983,0.329930545,0.010149507,0.149832777,0
Proletarsk,Luhansk,48.93333,38.38333,0.402188889,0.413994169,0.236058353,0.553742631,0.584347598,1
Prokhorivka,Donetsk,47.52738,37.67083,0.516066667,0.620991254,0.009189301,0.023100415,0.334675715,0
Prokhladne,Luhansk,48.14437,39.68511,0.671888889,0.690962099,0.125018827,0.007692726,0.087725048,1
Priyut,Donetsk,48.53832,37.41308,0.258711111,0.253644315,0.104178028,0.007218957,0.748485636,0
Pryvillya,Luhansk,49.84889,38.52,0.171388889,0.524781341,0.204233444,0.006915213,0.066626954,1
Pryvillya,Luhansk,49.01501,38.30457,0.418922222,0.206997085,0.130437895,0.232357237,0.529883598,1
Privolye,Donetsk,48.86009,37.26738,0.210833333,0.236151603,0.076866827,0.01280105,0.739447047,1
Pryvillya,Donetsk,48.72494,37.86965,0.123711111,0.370262391,0.012227097,0.013675658,0.682277063,0
Fedorovka,Luhansk,48.69667,38.44389,0.308766667,0.451895044,0.108047915,0.025184316,0.520070171,1
Pryvilne,Donetsk,47.86987,36.71269,0.157844444,0.428571429,0.296801718,0.010990025,0.87916341,1
Pristin,Luhansk,49.14006,38.56802,0.068866667,0.198250729,0.18932448,0.014118785,0.43226571,0
Pryshyb,Donetsk,49.02301,37.64809,0.183266667,0.250728863,0.010588233,0.012118985,0.552479525,1
Pryshyb,Luhansk,48.73616,38.93166,0.646888889,0.172011662,0.028488726,0.023995524,0.414466798,1
Prymorske,Donetsk,47.31391,37.94432,0.3635,0.268221574,0.052838552,0.015080885,0.158059683,1
Sartana,Donetsk,47.17436,37.69266,0.691788889,0.037900875,0.004474434,0.509333198,0.275357371,1
Primorskiy,Donetsk,47.08227,37.7082,0.728622222,0,0.265169732,0.016223006,0.222955677,1
Prykhodkivka,Luhansk,49.62602,38.90811,0.027811111,0.448979592,0.064151586,0.00709268,0.104773839,0
Pryberezhne,Donetsk,48.24028,38.36056,0.702111111,0.481049563,0.31169318,0.059601217,0.342289192,0
Preobrazhenka,Donetsk,48.11756,36.97007,0.146177778,0.44606414,0.489654834,0.011367429,0.816452353,1
Preobrazhenne,Luhansk,49.53119,38.15052,0.063666667,0.218658892,0.230967806,0.010873341,0.229983688,0
Preobrazhenka,Luhansk,48.5825,38.35694,0.254677778,0.428571429,0.395268996,0.016443633,0.487841458,0
Prelestne,Donetsk,48.83281,37.29526,0.283777778,0.233236152,0.01035517,0.01280105,0.74304536460303106,0
Predtechyne,Donetsk,48.52069,37.80952,0.354922222,0.411078717,0.138261537,0.007055298,0.602657131,0
Prechystivka,Donetsk,47.78172,37.07086,0.211288889,0.373177843,0.051461771,0.026881575,0.702060081,0
Pravdovka,Donetsk,48.32804,37.68157,0.3134,0.408163265,0.291486354,0.008409588,0.55899584,1
Pravda,Donetsk,48.71667,37.31667,0.266555556,0.501457726,0.089738295,0.071332304,0.791899729,1
Popiv Yar,Donetsk,48.42009,37.45967,0.187066667,0.443148688,0.467080333,0.007055298,0.682138438,0
Popovka,Luhansk,49.11667,38.4,0.309655556,0.396501458,0.296607602,0.014118785,0.483821955,0
Popovka,Luhansk,48.39361,39.59778,0.665744444,0.516034985,0.440810012,0.010288488,0.12202783,0
Popivka,Luhansk,48.36713,39.92737,0.827588889,0.096209913,0.282732403,0.131385972,0.005830028,0
Popovka,Luhansk,48.2475,38.75944,0.454677778,0.565597668,0.185285383,0.010149507,0.220501137,0
Popasne,Luhansk,49.00332,38.84003,0.470266667,0.513119534,0.006813357,0.00784662,0.456755485,1
Popasna,Luhansk,48.63328,38.37804,0.240966667,0.70845481,0.056177917,0.016443633,0.50579737,1
Poluzyukova,Donetsk,47.99389,38.44583,0.553177778,0.583090379,0.265195179,0.007299015,0.201302763,0
Polushkino,Luhansk,49.91651,38.10288,0.685988889,0.466472303,0.500147977,0.006915213,0.0181358,0
Poltavske,Luhansk,49.95477,38.49758,0.161644444,0.49271137,0.447317049,0.006915213,0.008152112,1
Poltavske,Donetsk,47.8771,38.19445,0.592255556,0.486880466,0.109493123,0.015849296,0.179523519,1
Poltavka,Donetsk,48.43555,37.46543,0.187166667,0.329446064,0.492052417,0.007055298,0.68609735,0
Poltavka,Donetsk,47.15,37.9,0.398888889,0.137026239,0.229604178,0.016223006,0.191162956,0
Poltava,Luhansk,49.62375,38.12014,0.050788889,0.241982507,0.4353812,0.010873341,0.175592141,1
Polovynkyne,Luhansk,49.22778,38.92055,0.111933333,0.172011662,0.034533291,0.015800481,0.325642865,1
Polkove,Donetsk,47.43908,37.52375,0.589611111,0.486880466,0.068075156,0.025781362,0.401728236,0
Politotdelskiy,Donetsk,48.04329,38.77434,0.767611111,0.947521866,0.159935559,0.252728008,0.107807106,0
Pokrovske,Luhansk,49.74098,38.22534,0.613133333,0.306122449,0.050985764,0.006915213,0.12271594,0
Pokrovske,Donetsk,48.63154,38.13918,0.255966667,0.303206997,0.007766837,0.013675658,0.585341581,0
Pokrovskiy,Donetsk,47.51667,38.18333,0.248688889,0.218658892,0.388963101,0.014032889,0.060518076,0
Pokrovo-Kireyevo,Donetsk,47.63333,38.26667,0.3883,0.32361516,0.007348368,0.018529607,0.046828588,0
Pokrovka,Donetsk,47.93464,38.27767,0.662022222,0.256559767,0.222996463,0.030236423,0.190128165,0
Pokrovka,Donetsk,47.9143,38.32997,0.492622222,0.259475219,0.077288533,0.015849296,0.172039821,0
Pakhalivka,Luhansk,48.66153,38.79631,0.503711111,0.189504373,0.00477483,0.023995524,0.445971383,0
Pogorelov,Luhansk,48.65389,39.53222,0.797222222,0.125364431,0.156316766,0.011763453,0.072679533,0
Podrezunovka Pervaya,Luhansk,49.43333,38.45,0.247822222,0.33819242,0.575534436,0.010873341,0.303092218,0
Pidhorivka,Luhansk,49.30803,38.88652,0.170366667,0.174927114,0.013352482,0.015800481,0.282816496,0
Podgornyy,Luhansk,48.57278,39.61528,0.6764,0.131195335,0.4093597,0.010900889,0.034848359,0
Pidhirne,Luhansk,48.39097,39.88811,0.816766667,0.102040816,0.315883696,0.009259972,0.012739596,0
Pidhorodne,Donetsk,48.63717,38.0338,0.329477778,0.355685131,0.01218835,0.031592326,0.609602155,0
Piddubne,Donetsk,48.01017,36.69313,0.408644444,0.279883382,0.087280691,0.010990025,0.942457462,1
Pobyeda,Donetsk,47.97873,38.80897,0.784266667,0.626822157,0.038648724,0.103464208,0.067431072,1
Pluzhnyy,Luhansk,48.75,39.13333,0.685422222,0.10787172,0.42664181,0.011763453,0.304216529,0
Pluhatar,Luhansk,49.23025,39.73785,0.103644444,0.268221574,0.307735795,0.007272797,0.099386321,0
Ploshchanka,Luhansk,49.2069,38.08608,0.107222222,0.405247813,0.019199692,0.014118785,0.405033749,0
Platonovskiy,Donetsk,47.79029,38.21369,0.624455556,0.478134111,0.227264199,0.01743299,0.13288747,0
Platonivka,Luhansk,47.94652,39.33647,0.134366667,0.27696793,0.032206372,0.005452187,0.039481336,0
Platonovka,Donetsk,47.61667,37.51667,0.418944444,0.632653061,0.130226299,0.025781362,0.433857585,0
Plastunovka,Luhansk,49.65229,38.87873,0.028133333,0.428571429,0.195504812,0.00709268,0.095580208,0
Plakho-Petrivka,Luhansk,49.62842,38.4835,0.194066667,0.314868805,0.246788556,0.007088704,0.191815526,0
Piskuny,Donetsk,48.53333,37.03333,0.190766667,0.571428571,0.029776337,0.115412858,0.905692788,0
Pyskunivka,Donetsk,48.88685,37.83523,0.1525,0.206997085,0.68531054,0.01078742,0.595242812,0
Pyshchevyk,Donetsk,47.242,37.7925,0.465433333,0.12244898,0.216835358,0.018464001,0.247013134,1
Pylypchatyne,Luhansk,48.60968,38.24667,0.247922222,0.358600583,0.400595758,0.01386696,0.536772588,0
Pikuzy,Donetsk,47.16667,37.81667,0.520911111,0.224489796,0.033507866,0.029293216,0.237140781,0
Pivnivka,Luhansk,49.44461,39.8861,0.124144444,0.349854227,0.055811179,0.007947846,0.066505082,0
Petrivske,Donetsk,48.76845,37.97432,0.0787,0.495626822,0.368569069,0.013675658,0.652259095,1
Petrovske,Luhansk,48.29662,38.87892,0.502944444,0.915451895,0.011940714,0.225918765,0.237546469,1
Petrivske,Donetsk,47.66125,37.16468,0.322788889,0.489795918,0.02757288,0.025781362,0.62945715,1
Petrivske,Luhansk,49.33139,39.14639,0.212155556,0.460641399,0.184637444,0.015800481,0.254481037,1
Petrivske,Luhansk,49.24281,37.91811,0.043888889,0.329446064,0.10322932,0.014048726,0.389241352,1
Petrovskiy,Luhansk,49.1,39.6,0.221,0.160349854,0.234963345,0.007272797,0.049153418,1
Petrivske,Donetsk,47.94481,38.67072,0.429866667,0.29154519,0.448190595,0.009294886,0.10368289,1
Petrovskiy,Donetsk,47.93161,37.62971,0.539222222,0.606413994,0.595807648,0.741328956,0.436909229,1
Petrovskiy,Luhansk,47.86917,39.15083,0.215488889,0.518950437,0.142049526,0.009741141,0.008830262,1
Petrovskiy,Donetsk,47.85,36.95,0.508088889,0.472303207,0.036840983,0.010990025,0.779019894,1
Petrivske,Donetsk,47.63172,37.83472,0.883711111,0.44606414,0.376037712,0.018529607,0.264797156,1
Petrivske,Donetsk,47.38318,37.96149,0.446111111,0.326530612,0.27761063,0.011152706,0.153548355,1
Petrovskiy,Donetsk,47.26667,37.75,0.550366667,0.195335277,0.045285235,0.012056765,0.268994492,1
Petrovskiy,Donetsk,47.23333,38.03333,0.287011111,0.160349854,0.157427757,0.016223006,0.116437179,1
Petrovo-Krasnoselye,Luhansk,48.3,38.86667,0.502944444,0.848396501,0.067129966,0.264966126,0.239570434,0
Petrivka Druha,Donetsk,48.67798,36.77999,0.116144444,0.288629738,0.030297298,0.009694312,0.877706772,1
Petrivka,Luhansk,49.86755,38.80199,0.157488889,0.259475219,0.077070146,0.00709268,0.011868267,1
Petrivka,Luhansk,49.36974,38.36731,0.239744444,0.510204082,0.074826995,0.010873341,0.346143798,1
Petrovka,Luhansk,48.88333,39.86667,0.7191,0.157434402,0.011293122,0.008096033,0.008081764,1
Petrovka,Donetsk,48.85,37.23333,0.215444444,0.244897959,0.080065787,0.012797752,0.755406008,1
Petrivka,Luhansk,48.80677,39.26649,0.5293,0.128279883,0.102032435,0.011763453,0.243535442,1
Petrovka,Luhansk,48.6175,38.88333,0.5293,0.221574344,0.063242126,0.023995524,0.418624414,1
Petrivka,Luhansk,48.53452,38.80888,0.629411111,0.274052478,0.016000946,0.132100779,0.373951142,1
Petrovka,Luhansk,48.48333,39.28333,0.502733333,0.160349854,0.137035954,0.194714248,0.224136603,1
Petrovka,Luhansk,48.455,39.76361,0.512911111,0.172011662,0.580290682,0.010288488,0.050739015,1
Petrivka,Donetsk,48.38787,37.78599,0.192488889,0.314868805,0.392353738,0.18466902,0.547521573,1
Petrovenky,Luhansk,48.6455,38.78911,0.577066667,0.201166181,0.053312101,0.023995524,0.437434951,0
Petropavlivka,Donetsk,48.13944,38.53353,0.5736,0.816326531,0.665837918,0.04481359,0.231079225,1
Petropavlivka,Donetsk,48.04746,37.14005,0.364755556,0.495626822,0.339016454,0.011262436,0.712730171,1
Petropavlivka,Donetsk,47.67536,38.56446,0.444866667,0.271137026,0.195709894,0.015849296,0.021226872,1
Petrogrado-Donetskoye,Luhansk,48.7,38.68333,0.423955556,0.49271137,0.112906512,0.075322669,0.4782253,0
Petrenky,Donetsk,47.72579,38.22048,0.483711111,0.416909621,0.271273377,0.016323176,0.10345604,0
Pisky,Luhansk,49.44131,38.98476,0.089555556,0.186588921,0.348026897,0.010089722,0.203954046,1
Pishchane,Luhansk,48.75649,39.35889,0.567033333,0.151603499,0.539532927,0.012798226,0.184322755,0
Pishchane,Luhansk,49.26923,38.95044,0.123255556,0.192419825,0.089270259,0.015800481,0.30119679,0
Pishchane,Donetsk,48.23399,37.11148,0.160388889,0.44606414,0.140800747,0.109642423,0.775477421,0
Pershozvanivka,Luhansk,48.33778,39.42556,0.311588889,0.361516035,0.623615081,0.020659166,0.203853295,1
Pervoye Maya,Donetsk,47.85917,38.22278,0.670566667,0.603498542,0.005478784,0.015849296,0.162599973,0
Pervomayske,Donetsk,48.09715,37.59201,0.409622222,0.451895044,0.032806353,0.015156474,0.505778373,1
Pervomayske,Donetsk,47.99296,38.78549,0.862355556,0.728862974,0.091419655,0.107232763,0.078931083,1
Pervomayske,Donetsk,47.42409,38.13076,0.197155556,0.151603499,0.078996162,0.011152706,0.075587034,1
Pervomayskiy,Luhansk,48.67889,38.76083,0.408011111,0.195335277,0.210210195,0.023995524,0.458220579,0
Pervomayskyy,Donetsk,47.97331,38.78999,0.770466667,0.673469388,0.094173664,0.107232763,0.067676014,1
Pervomayskiy,Donetsk,47.9,37.68333,0.543777778,0.679300292,0.318668993,0.283004219,0.401785698,0
Pervomayskiy,Donetsk,47.6,37.83333,0.795888889,0.504373178,0.412875232,0.02217224,0.261894646,0
Pervomaysk,Luhansk,49.45215,38.2858,0.167911111,0.250728863,0.468350526,0.010873341,0.287439819,1
Pervomaysk,Luhansk,49.08555,39.60601,0.248222222,0.163265306,0.253691823,0.007272797,0.041808246,1
Pervomaysk,Luhansk,48.62988,38.54806,0.261233333,0.448979592,0.049094464,0.182518007,0.462509094,1
Pervomayka,Luhansk,48.28861,39.78278,0.841955556,0.233236152,0.119169087,0.129883966,0.042525851,0
Nevske,Luhansk,49.15611,37.9725,0.124388889,0.239067055,0.093364982,0.013008981,0.434020916,0
Pervomayka,Donetsk,48.33333,37.96667,0.761622222,0.588921283,0.079480176,0.354250406,0.46668107,0
Pervomayka,Luhansk,47.86667,39.18333,0.125522222,0.510204082,0.155570565,0.008849167,0.009530762,0
Pervaya Balka,Donetsk,47.65,38.08333,0.725611111,0.282798834,0.306646079,0.018529607,0.135731237,0
Manhush,Donetsk,47.05582,37.31068,0.610244444,0.151603499,0.013508432,0.013302488,0.313776416,1
Pereyizne,Donetsk,48.77967,38.07466,0.128266667,0.212827988,0.128035818,0.013675658,0.645463244,0
Perevalsk,Luhansk,48.43779,38.84384,0.562766667,0.66180758,0.122859411,0.046204684,0.317862766,1
Pereshchepnaya,Luhansk,48.76389,38.43917,0.1996,0.545189504,0.326590378,0.016443633,0.555720145,0
Peremoha,Donetsk,47.28681,37.40441,0.609244444,0.137026239,0.019675747,0.010494694,0.384102803,1
Peredove,Donetsk,47.56886,37.16124,0.306711111,0.481049563,0.280703654,0.021603693,0.59105305,0
Peredilske,Luhansk,48.75386,39.15049,0.685422222,0.12244898,0.320384811,0.011446442,0.295340806,0
Pelahiyivka,Donetsk,48.10752,38.61338,0.599622222,0.851311953,0.46529907,0.295852384,0.186532043,0
Pavlovskiy,Donetsk,47.21472,38.02861,0.328822222,0.15451895,0.039256366,0.016223006,0.117805208,0
Pavlovka,Luhansk,49.88333,38.11667,0.685988889,0.513119534,0.283981445,0.006915213,0.032046581,0
Pavlivka,Luhansk,49.60864,38.70917,0.101111111,0.274052478,0.152142575,0.00709268,0.165167544,0
Pavlivka,Donetsk,48.52799,37.409910000000004,0.220844444,0.279883382,0.065812997,0.007218957,0.745448935,0
Pavlovka,Luhansk,48.48389,39.51222,0.627,0.206997085,0.001716396,0.010288488,0.111473387,0
Pavlivka,Luhansk,48.1315,39.54187,0.607488889,0.501457726,0.257175421,0.042830832,0.153745493,0
Pavlivka,Donetsk,47.75598,37.21822,0.209222222,0.44606414,0.023248954,0.031818057,0.619517193,0
Pavlivske,Donetsk,47.69939,38.34643,0.542933333,0.300291545,0.447430173,0.015849757,0.051821768,0
Pavlopil,Donetsk,47.26355,37.78162,0.386688889,0.131195335,0.064568492,0.012056765,0.251431794,1
Pavlenkove,Luhansk,49.70942,39.07924,0.064688889,0.201166181,0.027864704,0.010089722,0.062742365,0
Paskovo,Luhansk,48.715,39.6375,0.914311111,0.408163265,0.371770021,0.011763453,0.038740019,0
Parnevatka,Luhansk,49.73722,38.36167,0.457922222,0.513119534,0.419560418,0.006915213,0.143345807,0
Parkhomenko,Luhansk,48.57768,39.71944,0.527777778,0.177842566,0.011288383,0.010021935,0.005986499,1
Parizhskaya Kommuna,Luhansk,48.43333,38.81667,0.591677778,0.734693878,0.150995309,0.136974653,0.316711834,0
Paraskoveyevka,Donetsk,48.66296,38.00205,0.253511111,0.241982507,0.052616518,0.031592326,0.629151955,0
Paraskoviyivka,Donetsk,47.86863,37.44512,0.215611111,0.428571429,0.105077548,0.027643038,0.514888247,0
Pantyukhyne,Luhansk,49.75237,39.44762,0.079588889,0.367346939,0.004398196,0.008337127,0.005036293,0
Panteleymonivka,Donetsk,48.20181,37.97428,0.517844444,0.658892128,0.118980243,0.078875448,0.400828724,1
Pannivka,Donetsk,47.19558,37.24683,0.369611111,0.396501458,0.189825886,0.010494694,0.39457608,0
Pankivka,Luhansk,49.43747,38.8008,0.051766667,0.21574344,0.672723545,0.00709268,0.224534026,0
Pankivka,Luhansk,48.704,39.35117,0.581522222,0.125364431,0.402094455,0.346929737,0.178657419,0
Ozeryanivka,Donetsk,48.2737,37.97252,0.658888889,0.638483965,0.275336371,0.354250406,0.43581267,1
Vivcharove,Luhansk,49.85415,38.58465,0.124322222,0.262390671,0.034694843,0.006915213,0.067358069,0
Otradnyy,Donetsk,48.13333,37.2,0.1513,0.542274052,0.33939456,0.011367429,0.703938254,0
Otradnyy,Donetsk,47.78333,36.73333,0.184155556,0.460641399,0.267769328,0.010990025,0.834836009,0
Osykove,Donetsk,47.78907,38.20571,0.592333333,0.437317784,0.241248107,0.017927729,0.135140912,1
Ostrivske,Donetsk,48.00215,37.3463,0.475744444,0.346938776,0.136888179,0.25320425,0.596491103,0
Oskolonivka,Luhansk,48.85273,38.66,0.345744444,0.29154519,0.262943556,0.014674941,0.563053541,0
Osynove,Luhansk,49.57948,39.05653,0.078233333,0.189504373,0.005764201,0.010089722,0.134514952,0
Osikovo,Luhansk,49.66667,39.38333,0.068055556,0.44606414,0.002890397,0.008447322,0.041279221,0
Orlovo-Ivanivka,Donetsk,48.17444,38.46694,0.534311111,0.728862974,0.684517342,0.007299015,0.272319995,0
Orlivka,Luhansk,49.08263,38.72789,0.0752,0.349854227,0.08000592,0.013884914,0.427799186,1
Orlovka,Luhansk,48.42384,39.63032,0.595588889,0.50728863,0.553248225,0.010288488,0.099755718,1
Orlivka,Donetsk,48.16348,37.64492,0.463133333,0.510204082,0.437378399,0.015156474,0.506463913,1
Orlov,Luhansk,49.08333,38.73333,0.0752,0.367346939,0.053493978,0.013884914,0.426503785,1
Orlynske,Donetsk,47.65342,36.76606,0.226311111,0.376093294,0.002491782,0.011012678,0.768954629,0
Orekhovskiy,Donetsk,48.0125,38.69528,0.674422222,0.571428571,0.004912891,0.297182575,0.115771648,0
Orikhovo-Vasylivka,Donetsk,48.6788,37.88358,0.103744444,0.443148688,0.215261716,0.013675658,0.662201825,0
Orikhove-Donetske,Luhansk,48.77068,38.80146,0.407388889,0.15451895,0.161967553,0.023269169,0.490115948,0
Orikhove,Luhansk,48.72262,38.56399,0.301266667,0.536443149,0.00907038,0.016443633,0.50909406,1
Orikhove,Luhansk,48.04005,39.16837,0.527911111,0.486880466,0.064216324,0.010149507,0.103425077,1
Orikhivka,Luhansk,48.29083,39.20306,0.5322,0.620991254,0.004290076,0.030088421,0.23977976,0
Orikhuvatka,Donetsk,48.80441,37.768,0.358688889,0.489795918,0.084777205,0.020201416,0.648706944,0
Orekhov,Luhansk,48.875,38.94833,0.717233333,0.443148688,0.142380965,0.00932891,0.410722262,0
Orekhov,Donetsk,47.11667,37.88333,0.418633333,0.12244898,0.019483457,0.016223006,0.203585198,0
Vilshany,Luhansk,49.87258,38.49708,0.181044444,0.460641399,0.078631442,0.006915213,0.053827318,0
Vilkhove,Luhansk,48.67642,39.57195,0.852266667,0.224489796,0.267634834,0.011763453,0.056574856,1
Olkhovka,Luhansk,48.40611,39.14306,0.643322222,0.29154519,0.094786518,0.030088415,0.308328111,0
Olkhovka,Luhansk,48.17806,39.78984,0.898022222,0.574344023,0.207988437,0.007040393,0.064007546,0
Vilkhivka,Donetsk,48.09667,38.31917,0.860111111,0.495626822,0.264483573,0.224265053,0.270683333,0
Olkhovchik,Donetsk,48.06667,38.51667,0.675766667,0.539358601,0.18459345,0.327587367,0.213432102,0
Olkhovatka,Donetsk,48.25189,38.41282,0.604277778,0.583090379,0.466958744,0.273189606,0.324172966,0
Olhynske,Donetsk,47.72092,38.3956,0.471966667,0.306122449,0.127447264,0.015849296,0.058661476,0
Olhynka,Donetsk,47.69633,37.5124,0.363188889,0.626822157,0.007484379,0.025781362,0.450205392,1
Olenovka,Donetsk,48.25128,38.32022,0.694511111,0.574344023,0.227028812,0.201425148,0.354989677,0
Olenivka,Donetsk,47.82811,37.66046,0.584177778,0.603498542,0.01321221,0.025781362,0.394156164,1
Zhovtneve,Luhansk,49.41361,37.95028,0.136211111,0.349854227,0.265063466,0.010873341,0.291182855,1
Oktyabrske,Donetsk,48.45854,37.35465,0.231288889,0.259475219,0.106867367,0.008596659,0.739757753,1
Oktyabrskoye,Donetsk,47.98333,37.31667,0.470388889,0.352769679,0.008088215,0.027643038,0.607007236,0
Oktyabrske,Donetsk,47.70519,36.94137,0.233188889,0.463556851,0.050008522,0.010990025,0.725564573,1
Oktyabrske,Donetsk,47.50891,37.47812,0.445344444,0.574344023,0.166696365,0.025781362,0.435391359,1
Oktyabrskiy,Luhansk,47.85,39.13333,0.215488889,0.472303207,0.034822899,0.009741141,0.002771407,1
Oktyabrske,Donetsk,47.50235,38.1862,0.258377778,0.186588921,0.328070747,0.014032889,0.059720056,1
Oktyabrske,Donetsk,47.28632,38.09076,0.160677778,0.201166181,0.168058151,0.015089435,0.076922381,0
Ohulchansk,Luhansk,48.52679,39.66238,0.513344444,0.460641399,0.077077775,0.010288488,0.038914524,0
Ocheretyne,Donetsk,48.74202,37.12138,0.105322222,0.518950437,0.478872867,0.009694312,0.842144263,0
Ocheretyne,Donetsk,48.24518,37.61624,0.454144444,0.699708455,0.067311034,0.015156474,0.549881111,0
Obryv,Donetsk,47.09869,38.18523,0.601588889,0.032069971,0.140560982,0.016223006,0.053288993,1
Obozne,Luhansk,48.73205,39.3103,0.574711111,0.379008746,0.188726463,0.023995524,0.205184913,1
Oborotnivka,Luhansk,49.58968,38.04218,0.057244444,0.282798834,0.664413596,0.010873341,0.188019204,0
Obilne,Donetsk,47.82879,37.87871,0.681955556,0.379008746,0.073604328,0.037696634,0.286638113,0
Nyrkove,Luhansk,48.73932,38.31049,0.158488889,0.690962099,0.355823113,0.015938955,0.576713338,1
Nozdrivka,Luhansk,49.01897,39.66794,0.421833333,0.148688047,0.098396207,0.005932292,0.003494092,0
Novyy Svit,Donetsk,47.80591,38.02112,0.730688889,0.352769679,0.32151717,0.168992385,0.213795776,1
Nova Maryivka,Donetsk,47.4494,37.9417,0.391433333,0.396501458,0.095345827,0.011152706,0.176117349,0
Rozdolne,Donetsk,47.90711,36.91793,0.460111111,0.434402332,0.10762563,0.010990025,0.804517646,1
Novyy Komar,Donetsk,47.88252,36.83894,0.362177778,0.309037901,0.032411776,0.010990025,0.840234382,0
Pervomayskiy,Donetsk,47.99474,37.22041,0.234044444,0.422740525,0.042394976,0.027643038,0.659259096,0
Novyye Sadki,Donetsk,47.39544,38.12143,0.184811111,0.311953353,0.11111247,0.011152706,0.071453189,0
Novyy Donbass,Donetsk,48.06667,38.78333,0.754944444,0.819241983,0.308529285,0.252728008,0.119058365,0
Novozvanivka,Luhansk,48.58379,38.35723,0.254677778,0.443148688,0.386805416,0.016443633,0.488357959,1
Novozaryivka,Donetsk,47.63898,38.13489,0.680022222,0.405247813,0.055696168,0.018529607,0.107608643,0
Novoye Solntsevo,Donetsk,47.55,38.08333,0.476877778,0.478134111,0.16026016,0.018529607,0.118120625,0
Novoyelyzavetivka,Donetsk,48.13683,37.04094,0.265422222,0.422740525,0.275457949,0.011367429,0.784685516,0
Novoolenivka,Donetsk,48.39327,37.54031,0.218877778,0.396501458,0.062620936,0.007055298,0.639657381,0
Novoolenivka,Donetsk,48.13902,37.08657,0.190211111,0.50728863,0.018962206,0.011367429,0.762120698,0
Novomykolayivka,Donetsk,47.83895,37.69305,0.642855556,0.699708455,0.053457709,0.026003567,0.380292581,0
Novoyelanchyk,Donetsk,47.77972,38.43221,0.419555556,0.364431487,0.132068862,0.015849296,0.081589663,0
Novokaterynivka,Donetsk,47.72627,38.11033,0.536655556,0.256559767,0.025495381,0.018529607,0.146351595,0
Novoyavlenka,Donetsk,48.63839,37.20103,0.087866667,0.463556851,0.009847882,0.009694312,0.863874395,0
Novoyanysol,Donetsk,47.29325,37.2685,0.535088889,0.39941691,0.062192055,0.010494694,0.428767804,0
Novo-Vybrevo,Donetsk,47.1948,37.84739,0.459322222,0.172011662,0.073678398,0.016223006,0.21937774,0
Novovodyane,Luhansk,49.27382,38.02218,0.137333333,0.27696793,0.032723318,0.014118785,0.366265905,0
Novovodyanoye,Donetsk,48.54434,37.14666,0.1017,0.55393586,0.155709465,0.009454326,0.859662779,0
Novo-Viktorovka,Donetsk,48.53468,36.97878,0.074844444,0.551020408,0.355094376,0.009472976,0.930829172,0
Novovasylivka,Donetsk,48.20497,37.04212,0.201588889,0.355685131,0.019482728,0.011367429,0.801528674,0
Novo-Uspenka,Luhansk,48.4,39.21667,0.393077778,0.352769679,0.055567187,0.030088415,0.277294227,0
Novoukrayinka,Donetsk,47.83761,37.10495,0.224655556,0.548104956,0.088616285,0.027034404,0.692467474,0
Novo-Ukrainka,Donetsk,47.63333,36.95,0.271111111,0.352769679,0.050860993,0.010990025,0.690812866,0
Novotroitskoye,Donetsk,48.57797,37.21584,0.104166667,0.571428571,0.019471976,0.009513439,0.843007895,1
Novotroyitske,Donetsk,48.19526,37.08885,0.1959,0.376093294,0.03391041,0.04922022,0.775738159,1
Novotroyitske,Donetsk,47.7158,37.59189,0.614444444,0.498542274,0.057844037,0.025781362,0.409224077,1
Novotoretske,Donetsk,48.4082,37.32573,0.204477778,0.381924198,0.092771948,0.009570782,0.732919231,0
Novo-Ternovka,Donetsk,48,37.25,0.302633333,0.32361516,0.105780877,0.027643038,0.645156279,0
Novosvitlivka,Luhansk,48.49285,39.50699,0.627,0.21574344,0.006881392,0.010288488,0.110336996,1
Novodvirske,Donetsk,47.84302,38.14629,0.610855556,0.644314869,0.030429589,0.319387875,0.180050915,1
Novostriltsivka,Luhansk,49.32208,39.91468,0.177733333,0.253644315,0.018022555,0.007947846,0.103211458,0
Novospasivka,Luhansk,49.26528,39.78583,0.068577777777777807,0.376093294,0.184738769,0.007272797,0.111130029,0
Novo-Sofiyevka,Donetsk,48.03333,37.41667,0.413955556,0.419825073,0.216529195,0.027643038,0.569673951,0
Novosirotino,Luhansk,48.95,38.45,0.467166667,0.16909621,0.067215207,0.781507183,0.558376398,0
Novoselivka Persha,Donetsk,48.19606,37.52963,0.332977778,0.521865889,0.048431911,0.015156474,0.567849353,1
Novoselivka,Donetsk,49.0701,37.69517,0.145511111,0.300291545,0.059520783,0.009892355,0.517772672,1
Lysevka,Luhansk,48.83972,39.83194,0.8162,0.134110787,0.116988739,0.011599331,0.00193192,1
Novoselovka,Luhansk,48.58333,39.1,0.476866667,0.137026239,0.179582943,0.02493247,0.314842996,1
Novoselyvka,Donetsk,48.539,37.64854,0.3727,0.274052478,0.446379351,0.489628563,0.662238051,1
Novoselivka Druha,Donetsk,48.20953,37.79483,0.540711111,0.364431487,0.154229733,0.015156474,0.466498865,1
Novoukrayinka,Donetsk,48.03333,36.86667,0.332355556,0.373177843,0.014536632,0.010946491,0.853289744,1
Novoselivka,Donetsk,47.83693,37.83965,0.584277778,0.364431487,0.249478075,0.018529607,0.307897414,1
Novoselivka,Donetsk,47.40246,37.7314,0.350877778,0.344023324,0.118308156,0.011152706,0.282742925,1
Novoselovka,Donetsk,47.1153,37.54139,0.676522222,0.102040816,0.026917396,0.944771236,0.26316251,1
Novosilka,Donetsk,47.83836,36.68642,0.144455556,0.413994169,0.102592606,0.010990025,0.875622833,1
Novoselydivka,Donetsk,48.05745,37.29288,0.5251,0.483965015,0.291598969,0.098348879,0.637513363,0
Novorozsosh,Luhansk,49.54568,39.23632,0.068611111,0.256559767,0.062850402,0.010089722,0.12369813,0
Novoromanivka,Donetsk,47.22058,37.1775,0.305444444,0.314868805,0.195452291,0.010494694,0.432117117,0
Novo-Rayskoye,Donetsk,48.58333,37.48333,0.249244444,0.241982507,0.091430484,0.014096788,0.740834184,0
Novopskov,Luhansk,49.5464,39.08987,0.076066667,0.201166181,0.013685481,0.010089722,0.154918535,1
Novopreobrazhenne,Luhansk,49.55178,38.35802,0.108733333,0.428571429,0.568306456,0.009952016,0.247307467,0
Novo-Preobrazhenka,Donetsk,47.56667,37.31667,0.310088889,0.60058309,0.055395249,0.025781362,0.531853971,0
Novopil,Donetsk,47.80706,36.62461,0.122355556,0.495626822,0.051036791,0.011068547,0.88672556,0
Novopetrivka,Donetsk,48.59832,36.85802,0.059088889,0.335276968,8.91510187217989e-4,0.009694312,0.926799354,0
Novopetrivske,Donetsk,47.87644,38.41251,0.240055556,0.206997085,0.112248045,0.015849296,0.13727906,0
Novo-Petropavlovka,Donetsk,47.48333,37.36667,0.463433333,0.577259475,0.322164598,0.025781362,0.492992412,0
Novopetrykivka,Donetsk,47.63217,36.9293,0.271111111,0.39941691,0.015845338,0.010990025,0.697788585,0
Novopavlovka,Luhansk,48.06667,38.9,0.475411111,0.236151603,0.037276804,0.18608295,0.10837562,0
Novo-Pavlovka,Donetsk,48.58047,37.03852,0.221588889,0.530612245,0.11090588,0.009655984,0.9197527,0
Novopavlivka,Luhansk,48.40889,39.07167,0.381,0.317784257,0.288456276,0.030088415,0.307482575,0
Novopavlivka,Donetsk,47.56125,37.44063,0.328622222,0.655976676,0.127320447,0.025781362,0.463930451,0
Novoorlivka,Donetsk,48.18417,38.41306,0.6453,0.801749271,0.3994394,0.007299015,0.299450307,1
Omelkove,Luhansk,49.13632,39.08486,0.070755556,0.29154519,0.011081859,0.015800481,0.333865713,0
Novoocheretuvate,Donetsk,47.90023,36.81148,0.440644444,0.300291545,0.141865206,0.010990025,0.857524609,0
Novomykilske,Luhansk,49.34887,39.8446,0.148133333,0.256559767,0.067726462,0.007947846,0.122459225,0
Novomykilske,Luhansk,49.29936,38.1797,0.1177,0.195335277,0.044386484,0.012749652,0.361266623,0
Novo-Nikolayevskiy,Donetsk,48.25,37.31667,0.299644444,0.542274052,0.140431143,0.057780438,0.682318226,0
Novo-Nikolayevskiy,Donetsk,48.05,37.28333,0.463533333,0.510204082,0.238661413,0.106267411,0.64036879,0
Novonikolayevka,Donetsk,48.88333,37.78333,0.272977778,0.27696793,0.589001637,0.028345125,0.603381924,0
Novomykolayivka,Donetsk,48.88793,37.37504,0.137144444,0.379008746,0.426993207,0.01280105,0.692322085,0
Novonikolayevka,Donetsk,48.56298,37.37154,0.210611111,0.274052478,0.39418353,0.12878846,0.774670664,0
Novomykolayivka,Donetsk,48.18883,36.9271,0.167122222,0.32361516,0.037652684,0.011325753,0.855297354,0
Novonikanorovka,Luhansk,49.68928,38.21271,0.336833333,0.271137026,0.047593797,0.009166715,0.147415388,0
Novomykhaylivka,Donetsk,47.85381,37.48414,0.293522222,0.44606414,0.3494392,0.027643038,0.491336468,0
Novomykhaylivka,Donetsk,47.55841,38.0427,0.580477778,0.411078717,0.041719998,0.018529607,0.141497812,0
Novo-Mikhaylovka,Donetsk,47.55,38.05,0.5015,0.478134111,0.007996811,0.018529607,0.136763379,0
Novomayorske,Donetsk,47.73157,37.03884,0.216077778,0.416909621,0.053018799,0.011023364,0.705687575,0
Novomaryivka,Donetsk,48.15108,38.14686,0.763533333,0.33819242,0.143198721,0.348657921,0.329929383,0
Novolymarivka,Luhansk,49.27891,39.60333,0.112977778,0.204081633,0.053019884,0.007272797,0.133625218,0
Novolaspa,Donetsk,47.57329,37.87772,0.785533333,0.498542274,0.177099496,0.011152706,0.234862782,1
Novokryvorizhzhya,Donetsk,48.48861,36.89594,0.041166667,0.504373178,0.019749272,0.009454298,0.95447815,0
Novokrasnyanka,Luhansk,49.13419,38.27882,0.332811111,0.300291545,0.389660264,0.014118785,0.461113999,1
Novokrasnivka,Luhansk,47.93515,39.28644,0.136577778,0.247813411,0.003674146,0.010149507,0.039913569,0
Novokrasnivka,Donetsk,47.31607,37.15632,0.3987,0.486880466,0.02802175,0.010494694,0.479166122,0
Novoklynivka,Donetsk,47.8585,38.44928,0.300966667,0.317784257,0.138349348,0.015849296,0.124879702,0
Novokyyivka,Luhansk,48.58471,39.66623,0.661877778,0.10787172,0.309993334,0.01053274,0.009546901,0
Novokhatske,Donetsk,48.06341,36.68728,0.406288889,0.274052478,0.246849304,0.0109772,0.95460118,0
Berestove,Donetsk,47.58749,38.32997,0.3883,0.376093294,0.427431632,0.018529607,0.01018794,1
Novyy Kavkaz,Donetsk,48.75434,36.86083,0.098111111,0.521865889,0.347234586,0.0097027,0.839676576,0
Novo-Karpovka,Donetsk,47.48333,38.11667,0.283188889,0.306122449,0.431827829,0.01122655,0.100282305,0
Novo-Karpovka,Donetsk,47.20429,37.12412,0.246988889,0.29154519,0.018132067,0.011422018,0.448197876,0
Novoivanivka,Donetsk,47.67831,38.38343,0.480411111,0.274052478,0.172666062,0.015849296,0.037910566,1
Novohnativka,Donetsk,47.64316,37.69483,0.577722222,0.466472303,0.002329872,0.025781362,0.343237321,1
Novohrodivka,Donetsk,48.20135,37.33929,0.2604,0.618075802,0.363560273,0.012067711,0.656373657,0
Novohryshyne,Donetsk,48.4168,37.02648,0.068288889,0.373177843,0.214545763,0.080177304,0.870677235,0
Novohryhorivka,Donetsk,48.36554,38.41819,0.268311111,0.900874636,0.086348483,0.262696712,0.368760527,0
Novohryhorivka,Donetsk,47.56166,37.3942,0.375055556,0.620991254,0.133105122,0.025781362,0.489039485,0
Novohryhorivka,Donetsk,47.19513,37.21502,0.369611111,0.344023324,0.237042242,0.010494694,0.40694243,0
Novogrigorovka,Donetsk,48.57752,37.41703,0.169577778,0.29154519,0.275881382,0.025986311,0.763364178,1
Novogorodishche,Luhansk,49.43333,39.25,0.1236,0.466472303,0.415086307,0.007537526,0.1836181,0
Novo-Gavriya,Donetsk,47.1722,37.85376,0.394055556,0.148688047,0.077571166,0.016223006,0.216068334,0
Novoekonomichne,Donetsk,48.33225,37.3293,0.332988889,0.309037901,0.00831829,0.011367429,0.704147892,0
Novoekonomicheskoye,Donetsk,48.3,37.25,0.374922222,0.548104956,0.037675677,0.489530535,0.729313676,0
Novo-Dubovka,Donetsk,47.12369,37.0896,0.203977778,0.306122449,0.207740327,0.013300672,0.435970957,0
Novodruzhesk,Luhansk,48.96267,38.35728,0.384055556,0.536443149,0.378983272,0.312205017,0.56483335,0
Novodonetske,Donetsk,48.63526,36.98477,0.141133333,0.437317784,0.323068626,0.176100327,0.91766946,0
Novodonetske,Donetsk,47.75457,36.95997,0.323888889,0.396501458,0.252503995,0.010990025,0.741633997,0
Novoderkul,Luhansk,49.12781,39.62806,0.209877778,0.186588921,0.006533989,0.007272797,0.050850046,0
Novodaryivka,Luhansk,48.07745,39.47689,0.773255556,0.862973761,0.157024145,0.056633084,0.121981013,1
Novodaryivka,Luhansk,47.96373,39.38158,0.225355556,0.320699708,0.008958492,0.005102762,0.04916801,0
Novodarivka,Donetsk,47.78241,36.6328,0.148655556,0.481049563,0.215221606,0.011184034,0.873596651,0
Novochervone,Luhansk,49.63115,38.29848,0.236,0.247813411,0.051304846,0.006915213,0.194137212,0
Novochaykino,Donetsk,48.05,37.91667,0.651666667,0.70845481,0.136056691,0.48748702,0.353802431,0
Novobulakhivka,Luhansk,48.29806,39.08728,0.693566667,0.801749271,0.35628577,0.030088421,0.245864129,0
Novoborove,Luhansk,49.24588,38.54999,0.120466667,0.239067055,0.502663338,0.015736159,0.386683953,0
Novoborovytsi,Luhansk,47.86452,39.50739,0.254077778,0.562682216,0.030173185,0.005104221,0.010135389,1
Novobesheve,Donetsk,47.8109,37.86634,0.592433333,0.478134111,0.088899042,0.018529607,0.287527772,0
Novofedorivka,Donetsk,48.43333,36.96667,0.078177778,0.326530612,0.199981334,0.009454298,0.904006487,0
Novobelyanka,Donetsk,48.76667,37.61667,0.441655556,0.236151603,0.159105058,0.168579153,0.69360569,0
Novobila,Luhansk,49.7702,39.18221,0.066044444,0.227405248,0.047294186,0.010089722,0.035542698,0
Novobakhmutovka,Donetsk,48.24894,37.78541,0.493266667,0.419825073,0.267800887,0.015156474,0.486548434,0
Novo-Bakhmetyeve,Donetsk,48.73916,36.83624,0.068444444,0.530612245,0.287933874,0.009694312,0.846424931,0
Novoazovsk,Donetsk,47.11389,38.08599,0.495488889,0.069970845,0.001225746,0.016223006,0.09403813,1
Novoaydar,Luhansk,48.96391,39.00583,0.635288889,0.15451895,0.019894682,0.00784662,0.372561033,1
Novoatamanskoye,Donetsk,48.55806,38.25528,0.310388889,0.416909621,0.512453305,0.016022956,0.511070702,0
Novohannivka,Luhansk,48.43565,39.52592,0.6184,0.282798834,0.035863263,0.010288488,0.124758465,1
Novoandriyivka,Donetsk,48.67932,37.05489,0.101333333,0.335276968,0.104127559,0.009694312,0.893120806,0
Novoandriyivka,Donetsk,47.64769,37.34737,0.215411111,0.638483965,0.271569526,0.025781362,0.529402926,0
Novoamvrosiyivske,Donetsk,47.83331,38.49973,0.340655556,0.472303207,0.19706056,0.015849296,0.110491605,1
Novo-Alekseyevskiy,Donetsk,48.59795,37.35197,0.1207,0.405247813,0.385323722,0.010398097,0.796612086,0
Novooleksiyivka,Donetsk,47.38207,37.58534,0.602944444,0.326530612,0.272648718,0.025750014,0.362726866,0
Novooleksandrivka,Donetsk,48.35271,37.07182,0.085388889,0.428571429,0.008334714,0.010166989,0.829489087,0
Novoaleksandrovka,Luhansk,49.93333,38.46667,0.098466667,0.448979592,0.359672342,0.006915213,0.028044555,0
Novooleksandrivka,Luhansk,49.78677,38.13828,0.744988889,0.428571429,0.345876449,0.006915213,0.085604422,1
Oleksandrivka,Luhansk,49.63711,38.17893,0.207466667,0.253644315,0.117126352,0.010873341,0.171896158,1
Novooleksandrivka,Luhansk,49.25958,38.19763,0.209888889,0.198250729,0.059355734,0.014118785,0.384741242,1
Novooleksandrivka,Luhansk,49.13278,39.28418,0.084544444,0.253644315,0.019171621,0.013764575,0.222844054,1
Novooleksandrivka,Donetsk,48.76782,36.85261,0.098111111,0.524781341,0.442651879,0.0097027,0.831521473,1
Novo-Aleksandrovka,Donetsk,48.30058,36.90122,0.083111111,0.332361516,0.002296715,0.011247642,0.89715415,0
Novooleksandrivka,Luhansk,48.26194,39.63714,0.8122,0.241982507,0.011761732,0.010288488,0.124223442,1
Novo-Aleksandrovka,Luhansk,47.86861,39.48944,0.255577778,0.530612245,0.09835075,0.005446915,0.008345005,0
Novookhtyrka,Luhansk,48.91559,38.81199,0.444666667,0.373177843,0.028935586,0.00784662,0.483801147,0
Novgorodskoye,Donetsk,48.3269,37.84683,0.506966667,0.300291545,0.067285707,0.215178343,0.499556239,1
Novaya Nikolayevka,Donetsk,47.58322,37.66263,0.566011111,0.524781341,0.354052613,0.025781362,0.350624855,0
Novaya Kondrashevka,Luhansk,48.67901,39.46295,0.841533333,0.157434402,0.328662928,0.011763453,0.114083299,0
Novaya Kamenka,Donetsk,47.57813,38.17672,0.397577778,0.32361516,0.370416022,0.018529607,0.070693027,1
Novoheorhiyivka,Donetsk,47.86899,36.56994,0.147611111,0.454810496,0.082247372,0.014453358,0.933275686,0
Nova Astrakhan,Luhansk,49.12654,38.60505,0.065122222,0.212827988,0.011376548,0.014118785,0.429445407,0
Novooleksandrivka,Donetsk,47.39303,38.25641,0.260466667,0.262390671,0.337753031,0.011152706,0.011908657,1
